State,county_name,lat,lng,Percent_Republican,Percent_Democrat,Difference,Never,Rarely,Sometimes,Frequently,Always,Never_Rarely,Frequently_Always,Majority,White,Black,UnemploymentRate,Med_Household_Income,LessHS,HSGrad,Bachelors,GradProfDegree
West Virginia,Mercer County,37.4055,-81.1114,0.77,0.22,0.54,0.076,0.152,0.174,0.103,0.495,0.22799999999999998,0.598,Republican,0.91,0.06,0.0356,40784,0.17,0.39,0.13,0.07
West Virginia,Summers County,37.6559,-80.8586,0.73,0.26,0.47,0.053,0.104,0.166,0.111,0.567,0.157,0.6779999999999999,Republican,0.93,0.05,0.0517,38187,0.15,0.42,0.09,0.05
Georgia,Jones County,33.0251,-83.5605,0.67,0.33,0.34,0.049,0.087,0.226,0.209,0.43,0.136,0.639,Republican,0.73,0.25,0.0308,56020,0.11,0.39,0.12,0.08
Georgia,Echols County,30.7101,-82.894,0.87,0.12,0.76,0.097,0.073,0.182,0.202,0.446,0.16999999999999998,0.648,Republican,0.74,0.02,0.0182,39494,0.26,0.42,0.06,0.04
Missouri,Ste. Genevieve County,37.8944,-90.1945,0.7,0.29,0.41,0.025,0.14,0.144,0.311,0.38,0.165,0.6910000000000001,Republican,0.97,0.02,0.0221,60129,0.11,0.39,0.11,0.09
Montana,Pondera County,48.2277,-112.2263,0.68,0.3,0.38,0.123,0.175,0.17,0.142,0.39,0.298,0.532,Republican,0.81,0,0.0387,51151,0.07,0.33,0.19,0.05
Kentucky,Fayette County,38.0423,-84.4587,0.38,0.59,-0.21,0.031,0.051,0.066,0.202,0.65,0.08199999999999999,0.8520000000000001,Democrat,0.75,0.15,0.0344,57291,0.09,0.2,0.24,0.19
Alabama,DeKalb County,34.4598,-85.8041,0.84,0.15,0.7,0.084,0.051,0.106,0.179,0.58,0.135,0.7589999999999999,Republican,0.85,0.01,0.0217,40440,0.25,0.34,0.08,0.05
Kentucky,Muhlenberg County,37.2158,-87.142,0.74,0.25,0.49,0.035,0.154,0.123,0.2,0.488,0.189,0.688,Republican,0.93,0.05,0.0328,43590,0.18,0.45,0.08,0.05
South Carolina,Fairfield County,34.3951,-81.1212,0.38,0.61,-0.23,0.046,0.032,0.046,0.31,0.566,0.078,0.8759999999999999,Democrat,0.39,0.59,0.0323,38213,0.14,0.41,0.12,0.05
Georgia,Screven County,32.7506,-81.6119,0.59,0.4,0.19,0.198,0.069,0.081,0.242,0.41,0.267,0.6519999999999999,Republican,0.56,0.42,0.0435,39842,0.17,0.42,0.09,0.06
Kentucky,Laurel County,37.1107,-84.1178,0.83,0.16,0.67,0.201,0.047,0.083,0.152,0.517,0.248,0.669,Republican,0.97,0.01,0.0348,41526,0.19,0.39,0.09,0.06
Oregon,Jefferson County,44.6294,-121.1762,0.6,0.37,0.23,0.018,0.062,0.012,0.25,0.657,0.08,0.907,Republican,0.71,0.01,0.0468,53277,0.13,0.31,0.13,0.06
Georgia,Dodge County,32.1722,-83.1684,0.72,0.27,0.45,0.145,0.025,0.15,0.236,0.443,0.16999999999999998,0.679,Republican,0.67,0.29,0.0275,39302,0.14,0.44,0.1,0.04
Florida,Nassau County,30.6106,-81.8016,0.72,0.26,0.46,0.09,0.07,0.147,0.223,0.47,0.16,0.693,Republican,0.9,0.06,0.0224,69943,0.09,0.32,0.18,0.11
Maryland,Baltimore County,39.4627,-76.6393,0.35,0.62,-0.27,0.013,0.024,0.043,0.142,0.777,0.037,0.919,Democrat,0.61,0.29,0.0318,76866,0.09,0.26,0.23,0.17
Texas,Irion County,31.3039,-100.9824,0.85,0.13,0.72,0.009,0.047,0.058,0.276,0.61,0.056,0.886,Republican,0.76,0.04,0.0337,47500,0.07,0.38,0.12,0.03
South Dakota,Buffalo County,44.0763,-99.2048,0.33,0.64,-0.31,0.161,0.059,0.157,0.253,0.371,0.22,0.624,Democrat,0.14,0,0.1276,34808,0.22,0.4,0.07,0.02
New Mexico,Bernalillo County,35.0513,-106.6701,0.37,0.61,-0.24,0.036,0.014,0.057,0.135,0.758,0.049999999999999996,0.893,Democrat,0.74,0.03,0.0352,53329,0.11,0.23,0.19,0.16
Massachusetts,Bristol County,41.7972,-71.1144,0.43,0.55,-0.12,0.016,0.02,0.056,0.161,0.747,0.036000000000000004,0.908,Democrat,0.84,0.04,0.0351,69095,0.14,0.3,0.18,0.1
North Dakota,McHenry County,48.2346,-100.6363,0.79,0.19,0.6,0.206,0.132,0.124,0.263,0.275,0.33799999999999997,0.538,Republican,0.97,0,0.0153,64179,0.09,0.34,0.18,0.04
North Carolina,Beaufort County,35.494,-76.8598,0.62,0.37,0.26,0.037,0.08,0.041,0.219,0.623,0.11699999999999999,0.842,Republican,0.72,0.25,0.038,45212,0.12,0.33,0.13,0.08
North Dakota,Eddy County,47.7176,-98.9016,0.68,0.3,0.37,0.269,0.159,0.117,0.209,0.246,0.42800000000000005,0.45499999999999996,Republican,0.91,0,0.0074,54868,0.11,0.29,0.19,0.08
Wisconsin,Florence County,45.8485,-88.3981,0.73,0.27,0.46,0.053,0.073,0.143,0.238,0.494,0.126,0.732,Republican,0.98,0,0.0302,52181,0.07,0.38,0.14,0.06
Nebraska,Hamilton County,40.873,-98.0229,0.77,0.2,0.57,0.04,0.124,0.157,0.252,0.427,0.164,0.679,Republican,0.96,0,0.0204,64210,0.05,0.3,0.17,0.08
Arkansas,Pope County,35.4476,-93.0342,0.74,0.24,0.5,0.082,0.151,0.181,0.285,0.302,0.23299999999999998,0.587,Republican,0.91,0.03,0.0359,43462,0.16,0.35,0.15,0.08
Montana,Chouteau County,47.8806,-110.4352,0.64,0.33,0.3,0.196,0.135,0.171,0.152,0.346,0.331,0.498,Republican,0.78,0,0.0156,42298,0.07,0.34,0.23,0.06
New Mexico,De Baca County,34.3425,-104.412,0.73,0.26,0.47,0.036,0.069,0.085,0.098,0.712,0.10500000000000001,0.8099999999999999,Republican,0.67,0.02,0.0499,31625,0.16,0.36,0.07,0.06
Colorado,San Miguel County,38.0038,-108.4057,0.22,0.76,-0.54,0.043,0.058,0.074,0.26,0.565,0.101,0.825,Democrat,0.95,0,0.0195,67038,0.03,0.15,0.43,0.16
South Dakota,Hamlin County,44.6738,-97.1883,0.77,0.21,0.56,0.119,0.143,0.256,0.137,0.345,0.262,0.482,Republican,0.97,0,0.0173,67105,0.08,0.43,0.16,0.05
Virginia,Fredericksburg city,38.2992,-77.4872,0.31,0.66,-0.35,0.038,0.007,0.034,0.136,0.784,0.045,0.92,Democrat,0.62,0.22,0.034,65641,0.1,0.24,0.23,0.18
Illinois,Clinton County,38.6065,-89.4225,0.74,0.23,0.51,0.102,0.063,0.083,0.166,0.587,0.16499999999999998,0.753,Republican,0.94,0.03,0.0162,66639,0.1,0.32,0.15,0.07
Arkansas,Hot Spring County,34.3176,-92.946,0.73,0.25,0.49,0.059,0.086,0.079,0.216,0.56,0.145,0.776,Republican,0.85,0.11,0.0305,43889,0.14,0.39,0.09,0.05
North Carolina,Catawba County,35.662,-81.2151,0.68,0.31,0.37,0.035,0.07,0.13,0.214,0.551,0.10500000000000001,0.765,Republican,0.79,0.08,0.0405,52056,0.14,0.3,0.15,0.07
Mississippi,Chickasaw County,33.9208,-88.9479,0.51,0.47,0.04,0.07,0.134,0.088,0.182,0.525,0.20400000000000001,0.7070000000000001,Republican,0.5,0.44,0.0195,36548,0.25,0.38,0.1,0.03
Georgia,Heard County,33.297,-85.1283,0.84,0.15,0.69,0.126,0.094,0.166,0.144,0.471,0.22,0.615,Republican,0.87,0.09,0.0302,51358,0.2,0.45,0.04,0.05
South Dakota,Hutchinson County,43.3349,-97.7544,0.78,0.2,0.58,0.129,0.163,0.199,0.188,0.321,0.29200000000000004,0.509,Republican,0.97,0,0.0228,57089,0.12,0.33,0.19,0.06
Illinois,Morgan County,39.7156,-90.2015,0.65,0.33,0.32,0.05,0.062,0.177,0.178,0.533,0.112,0.7110000000000001,Republican,0.9,0.07,0.032,51437,0.09,0.4,0.13,0.06
Illinois,Rock Island County,41.4673,-90.5674,0.43,0.55,-0.12,0.078,0.025,0.066,0.235,0.596,0.10300000000000001,0.831,Democrat,0.8,0.1,0.0358,54858,0.11,0.29,0.15,0.08
South Dakota,Haakon County,44.2945,-101.5399,0.9,0.09,0.81,0.117,0.051,0.151,0.241,0.44,0.168,0.681,Republican,0.9,0,0.0073,42250,0.06,0.44,0.14,0.02
California,Riverside County,33.7437,-115.9938,0.45,0.53,-0.08,0.026,0.014,0.041,0.116,0.803,0.04,0.919,Democrat,0.6,0.07,0.0446,67005,0.18,0.27,0.14,0.08
Kansas,Ellsworth County,38.6966,-98.2047,0.75,0.23,0.52,0.174,0.133,0.133,0.187,0.373,0.307,0.56,Republican,0.91,0.03,0.0185,54902,0.08,0.34,0.13,0.06
Missouri,St. Francois County,37.8102,-90.4722,0.73,0.25,0.48,0.103,0.12,0.085,0.264,0.428,0.22299999999999998,0.692,Republican,0.93,0.04,0.0264,46466,0.15,0.37,0.08,0.06
Illinois,Cumberland County,39.2734,-88.2402,0.79,0.2,0.59,0.095,0.075,0.194,0.212,0.424,0.16999999999999998,0.636,Republican,0.97,0,0.0194,56206,0.09,0.4,0.11,0.05
Kansas,Cloud County,39.4803,-97.6493,0.76,0.21,0.55,0.154,0.077,0.118,0.217,0.434,0.23099999999999998,0.651,Republican,0.95,0.02,0.0265,45373,0.07,0.32,0.14,0.1
Nevada,Elko County,41.1458,-115.3577,0.76,0.21,0.55,0.021,0.046,0.19,0.364,0.379,0.067,0.743,Republican,0.86,0.01,0.0324,81232,0.14,0.33,0.1,0.06
Oregon,Sherman County,45.4052,-120.6894,0.76,0.22,0.55,0.008,0.014,0.046,0.271,0.66,0.022,0.931,Republican,0.92,0,0.0241,51071,0.11,0.32,0.12,0.05
Iowa,Linn County,42.079,-91.599,0.42,0.56,-0.14,0.039,0.081,0.115,0.201,0.563,0.12,0.764,Democrat,0.88,0.06,0.0256,64903,0.06,0.27,0.23,0.1
Minnesota,Douglas County,45.9337,-95.4535,0.65,0.33,0.33,0.099,0.178,0.148,0.225,0.35,0.277,0.575,Republican,0.97,0,0.0162,63819,0.05,0.29,0.18,0.08
Georgia,Crawford County,32.7145,-83.9863,0.73,0.26,0.46,0.057,0.051,0.231,0.192,0.468,0.108,0.66,Republican,0.75,0.22,0.0437,46283,0.17,0.4,0.05,0.05
Illinois,Winnebago County,42.3363,-89.1609,0.48,0.5,-0.03,0.031,0.03,0.089,0.193,0.657,0.061,0.8500000000000001,Democrat,0.79,0.13,0.0522,54489,0.12,0.32,0.14,0.08
Louisiana,St. James Parish,30.0263,-90.7963,0.47,0.52,-0.04,0.034,0.099,0.202,0.061,0.603,0.133,0.6639999999999999,Democrat,0.49,0.5,0.0345,51603,0.15,0.41,0.12,0.05
Virginia,Williamsburg city,37.2692,-76.7076,0.29,0.7,-0.41,0.005,0.009,0.001,0.249,0.737,0.013999999999999999,0.986,Democrat,0.73,0.15,0.0289,57463,0.05,0.19,0.27,0.3
Alabama,Russell County,32.2884,-85.1849,0.46,0.53,-0.06,0.069,0.067,0.08,0.213,0.57,0.136,0.7829999999999999,Democrat,0.49,0.44,0.0357,42443,0.16,0.31,0.11,0.06
Illinois,Will County,41.445,-87.9786,0.45,0.53,-0.08,0.041,0.024,0.062,0.134,0.739,0.065,0.873,Democrat,0.73,0.11,0.0322,86961,0.09,0.27,0.22,0.12
North Dakota,Foster County,47.4571,-98.883,0.77,0.21,0.56,0.265,0.081,0.081,0.27,0.304,0.34600000000000003,0.5740000000000001,Republican,0.96,0,0.0034,61425,0.1,0.26,0.21,0.06
Oklahoma,Pittsburg County,34.9239,-95.7484,0.77,0.21,0.56,0.117,0.112,0.153,0.36,0.258,0.229,0.618,Republican,0.73,0.03,0.0335,46784,0.13,0.38,0.11,0.05
Virginia,Highland County,38.3623,-79.5686,0.71,0.27,0.44,0.059,0.041,0.103,0.197,0.599,0.1,0.796,Republican,0.99,0,0.0172,48587,0.11,0.39,0.13,0.09
Florida,Liberty County,30.2414,-84.8829,0.8,0.19,0.6,0.022,0.023,0.205,0.268,0.482,0.045,0.75,Republican,0.8,0.16,0.0275,38015,0.19,0.46,0.09,0.05
Wisconsin,Green County,42.68,-89.6022,0.48,0.51,-0.03,0.092,0.084,0.119,0.269,0.436,0.176,0.7050000000000001,Democrat,0.96,0.01,0.014,64502,0.08,0.35,0.16,0.08
Missouri,Iron County,37.5552,-90.7735,0.78,0.21,0.58,0.133,0.091,0.072,0.28,0.423,0.224,0.7030000000000001,Republican,0.96,0.01,0.0316,37435,0.18,0.41,0.08,0.03
Kentucky,Bell County,36.7306,-83.6741,0.81,0.18,0.63,0.146,0.094,0.12,0.199,0.44,0.24,0.639,Republican,0.95,0.03,0.0387,26272,0.3,0.38,0.04,0.05
Ohio,Union County,40.2994,-83.3716,0.65,0.33,0.31,0.175,0.018,0.099,0.245,0.463,0.19299999999999998,0.708,Republican,0.91,0.03,0.0123,86715,0.07,0.32,0.23,0.12
Colorado,San Juan County,37.764,-107.6762,0.36,0.61,-0.25,0.032,0.038,0.097,0.27,0.563,0.07,0.833,Democrat,0.97,0,0.0134,54625,0.06,0.26,0.26,0.09
Minnesota,Isanti County,45.5615,-93.2951,0.68,0.29,0.39,0.104,0.099,0.215,0.14,0.442,0.203,0.5820000000000001,Republican,0.95,0,0.0277,74616,0.07,0.35,0.13,0.06
Florida,Dixie County,29.6082,-83.1588,0.83,0.17,0.66,0.071,0.095,0.119,0.318,0.397,0.16599999999999998,0.7150000000000001,Republican,0.86,0.09,0.0182,39828,0.22,0.43,0.07,0.04
Iowa,Jefferson County,41.0318,-91.9489,0.5,0.48,0.01,0.074,0.116,0.221,0.191,0.398,0.19,0.589,Republican,0.83,0.07,0.0413,47708,0.07,0.28,0.18,0.14
Pennsylvania,Montour County,41.0279,-76.6586,0.6,0.38,0.21,0.042,0.022,0.079,0.143,0.714,0.064,0.857,Republican,0.94,0.02,0.0118,58333,0.09,0.4,0.17,0.15
Tennessee,Sumner County,36.4694,-86.4604,0.69,0.3,0.39,0.104,0.069,0.14,0.196,0.49,0.173,0.6859999999999999,Republican,0.87,0.07,0.0198,67204,0.1,0.31,0.19,0.09
Missouri,Cedar County,37.7239,-93.8566,0.82,0.16,0.66,0.275,0.056,0.173,0.155,0.341,0.331,0.496,Republican,0.96,0,0.0352,39365,0.12,0.41,0.09,0.05
Texas,Brown County,31.7743,-98.9998,0.86,0.13,0.73,0.085,0.077,0.066,0.239,0.534,0.162,0.773,Republican,0.91,0.04,0.0233,48365,0.13,0.36,0.14,0.05
North Carolina,Yancey County,35.8989,-82.3076,0.66,0.32,0.34,0.028,0.019,0.063,0.224,0.665,0.047,0.889,Republican,0.96,0.01,0.0267,42222,0.15,0.33,0.12,0.08
Ohio,Lucas County,41.6199,-83.6583,0.41,0.58,-0.17,0.078,0.056,0.111,0.189,0.566,0.134,0.7549999999999999,Democrat,0.72,0.19,0.0454,48736,0.11,0.3,0.16,0.1
Idaho,Adams County,44.8896,-116.4538,0.75,0.23,0.52,0.094,0.216,0.218,0.218,0.254,0.31,0.472,Republican,0.95,0,0.0427,48856,0.1,0.35,0.12,0.09
Pennsylvania,Crawford County,41.6847,-80.1063,0.68,0.31,0.37,0.024,0.016,0.136,0.266,0.558,0.04,0.8240000000000001,Republican,0.95,0.02,0.0308,50304,0.11,0.46,0.13,0.08
Florida,Gadsden County,30.5795,-84.6136,0.31,0.68,-0.37,0.06,0.033,0.104,0.227,0.575,0.093,0.8019999999999999,Democrat,0.4,0.56,0.035,41401,0.2,0.36,0.11,0.06
Georgia,Emanuel County,32.5897,-82.3017,0.69,0.3,0.39,0.062,0.044,0.142,0.252,0.5,0.106,0.752,Republican,0.62,0.34,0.0365,37453,0.21,0.41,0.06,0.07
Florida,Osceola County,28.0627,-81.1495,0.43,0.56,-0.14,0.025,0.022,0.058,0.176,0.72,0.047,0.8959999999999999,Democrat,0.73,0.11,0.0337,52279,0.13,0.31,0.15,0.07
West Virginia,Logan County,37.8315,-81.9353,0.81,0.18,0.63,0.082,0.11,0.116,0.247,0.445,0.192,0.692,Republican,0.97,0.02,0.0604,36168,0.2,0.44,0.06,0.04
California,Sacramento County,38.4493,-121.3443,0.36,0.61,-0.25,0.025,0.028,0.062,0.164,0.722,0.053000000000000005,0.886,Democrat,0.57,0.1,0.0409,67151,0.12,0.22,0.2,0.1
Arkansas,Franklin County,35.5123,-93.8906,0.8,0.18,0.61,0.149,0.079,0.245,0.187,0.34,0.22799999999999998,0.527,Republican,0.94,0.01,0.0151,38923,0.16,0.41,0.1,0.02
Nebraska,Blaine County,41.9128,-99.9768,0.88,0.11,0.77,0.176,0.103,0.123,0.305,0.293,0.27899999999999997,0.598,Republican,1,0,0,51094,0.05,0.31,0.14,0.09
Georgia,Elbert County,34.1168,-82.8401,0.68,0.31,0.36,0.132,0.177,0.081,0.107,0.503,0.309,0.61,Republican,0.68,0.3,0.0402,38678,0.22,0.41,0.07,0.05
Oklahoma,Texas County,36.7479,-101.4901,0.82,0.16,0.65,0.123,0.12,0.102,0.225,0.43,0.243,0.655,Republican,0.63,0.02,0.0193,52282,0.28,0.26,0.17,0.05
Missouri,New Madrid County,36.5946,-89.6517,0.75,0.24,0.51,0.098,0.112,0.149,0.18,0.461,0.21000000000000002,0.641,Republican,0.82,0.15,0.0331,38679,0.21,0.47,0.06,0.06
New Hampshire,Belknap County,43.5179,-71.4227,0.54,0.44,0.1,0.114,0.02,0.11,0.158,0.598,0.134,0.756,Republican,0.96,0.01,0.0251,69447,0.07,0.29,0.2,0.13
Texas,Kerr County,30.0615,-99.35,0.75,0.24,0.52,0.059,0.149,0.167,0.154,0.472,0.208,0.626,Republican,0.88,0.01,0.0286,55990,0.11,0.27,0.18,0.1
Alabama,Clay County,33.269,-85.8606,0.81,0.18,0.63,0.148,0.158,0.195,0.169,0.329,0.306,0.498,Republican,0.83,0.16,0.0291,40845,0.23,0.38,0.06,0.05
Georgia,Cherokee County,34.2439,-84.4762,0.69,0.3,0.39,0.049,0.054,0.1,0.213,0.584,0.10300000000000001,0.7969999999999999,Republican,0.86,0.07,0.025,82740,0.08,0.22,0.26,0.12
North Carolina,Cleveland County,35.3341,-81.5555,0.66,0.33,0.33,0.062,0.121,0.094,0.151,0.573,0.183,0.724,Republican,0.75,0.21,0.0463,42247,0.16,0.34,0.11,0.07
Mississippi,Marion County,31.2308,-89.8224,0.68,0.31,0.37,0.137,0.096,0.103,0.255,0.408,0.233,0.663,Republican,0.65,0.33,0.0258,32090,0.18,0.39,0.08,0.04
Nebraska,Sheridan County,42.5048,-102.4089,0.85,0.13,0.73,0.248,0.083,0.094,0.333,0.242,0.331,0.575,Republican,0.83,0.02,0.011,45371,0.09,0.33,0.16,0.07
Texas,Jackson County,28.9542,-96.5776,0.83,0.16,0.66,0.02,0.062,0.146,0.075,0.696,0.082,0.7709999999999999,Republican,0.87,0.07,0.0201,62806,0.18,0.31,0.12,0.04
Texas,Cameron County,26.1334,-97.5181,0.43,0.56,-0.13,0.035,0.061,0.034,0.056,0.813,0.096,0.869,Democrat,0.94,0.01,0.0322,38758,0.32,0.26,0.12,0.05
Arkansas,Clay County,36.3683,-90.4175,0.79,0.19,0.6,0.082,0.124,0.157,0.242,0.395,0.20600000000000002,0.637,Republican,0.96,0.01,0.029,37233,0.18,0.42,0.07,0.05
New York,Delaware County,42.1981,-74.9665,0.58,0.4,0.18,0.057,0.053,0.034,0.112,0.744,0.11,0.856,Republican,0.95,0.02,0.0255,49544,0.11,0.38,0.13,0.1
Georgia,Warren County,33.4089,-82.6768,0.44,0.55,-0.11,0.095,0.065,0.14,0.226,0.474,0.16,0.7,Democrat,0.37,0.61,0.0249,37203,0.27,0.4,0.08,0.04
Minnesota,Faribault County,43.6739,-93.9479,0.66,0.32,0.34,0.078,0.158,0.163,0.261,0.34,0.236,0.601,Republican,0.97,0,0.0211,53156,0.07,0.38,0.14,0.04
Virginia,Goochland County,37.7217,-77.916,0.59,0.39,0.19,0.034,0.043,0.065,0.097,0.761,0.077,0.858,Republican,0.8,0.16,0.0212,93994,0.09,0.24,0.26,0.16
Kentucky,Clinton County,36.7274,-85.1362,0.87,0.12,0.75,0.096,0.115,0.248,0.165,0.375,0.21100000000000002,0.54,Republican,0.97,0,0.0294,32184,0.27,0.4,0.06,0.04
South Carolina,Kershaw County,34.3388,-80.5902,0.61,0.38,0.23,0.062,0.019,0.114,0.189,0.616,0.081,0.8049999999999999,Republican,0.71,0.24,0.033,51479,0.12,0.37,0.13,0.08
Mississippi,Coahoma County,34.2292,-90.6027,0.28,0.71,-0.43,0.038,0.056,0.118,0.33,0.459,0.094,0.789,Democrat,0.21,0.78,0.0795,29121,0.2,0.25,0.1,0.06
Georgia,Henry County,33.453,-84.1542,0.39,0.6,-0.2,0.103,0.048,0.091,0.181,0.578,0.151,0.7589999999999999,Democrat,0.48,0.44,0.0379,71288,0.09,0.32,0.18,0.1
California,Modoc County,41.5898,-120.725,0.72,0.27,0.45,0.068,0.019,0.095,0.204,0.615,0.08700000000000001,0.819,Republican,0.9,0.02,0.0377,45507,0.15,0.33,0.09,0.06
Wisconsin,Winnebago County,44.0689,-88.6446,0.51,0.47,0.04,0.074,0.194,0.126,0.156,0.45,0.268,0.606,Republican,0.92,0.02,0.0199,58543,0.07,0.33,0.2,0.08
Indiana,Boone County,40.0508,-86.4687,0.58,0.4,0.18,0.052,0.085,0.142,0.308,0.413,0.137,0.721,Republican,0.93,0.02,0.0134,83077,0.06,0.19,0.29,0.2
North Carolina,Washington County,35.8226,-76.5775,0.45,0.55,-0.1,0.113,0.053,0.057,0.301,0.476,0.166,0.7769999999999999,Democrat,0.46,0.47,0.0355,35979,0.16,0.37,0.08,0.03
Oregon,Wasco County,45.16,-121.1678,0.5,0.47,0.03,0.019,0.034,0.069,0.197,0.681,0.053000000000000005,0.8780000000000001,Republican,0.88,0,0.0265,53105,0.14,0.29,0.12,0.07
Florida,Marion County,29.2102,-82.0567,0.63,0.37,0.26,0.046,0.087,0.121,0.203,0.543,0.133,0.746,Republican,0.82,0.13,0.0387,45371,0.12,0.37,0.13,0.07
Minnesota,Houston County,43.6714,-91.4929,0.55,0.42,0.13,0.072,0.08,0.086,0.283,0.478,0.152,0.7609999999999999,Republican,0.97,0.01,0.012,60382,0.05,0.34,0.17,0.07
Montana,Fallon County,46.334,-104.4174,0.87,0.11,0.76,0.118,0.199,0.146,0.296,0.24,0.317,0.536,Republican,0.95,0,0.0079,64545,0.05,0.38,0.14,0.05
Idaho,Minidoka County,42.8543,-113.6375,0.78,0.19,0.59,0.134,0.219,0.106,0.152,0.39,0.353,0.542,Republican,0.94,0,0.0235,53370,0.21,0.32,0.09,0.05
Ohio,Fairfield County,39.7516,-82.6306,0.61,0.37,0.23,0.1,0.095,0.135,0.142,0.527,0.195,0.669,Republican,0.87,0.07,0.0251,67609,0.07,0.34,0.18,0.1
Oregon,Multnomah County,45.5468,-122.4147,0.18,0.79,-0.61,0.013,0.016,0.054,0.178,0.738,0.028999999999999998,0.9159999999999999,Democrat,0.78,0.05,0.0342,69176,0.09,0.17,0.28,0.18
Tennessee,Haywood County,35.5832,-89.2838,0.45,0.54,-0.09,0.086,0.026,0.169,0.155,0.565,0.11199999999999999,0.72,Democrat,0.47,0.51,0.0377,37905,0.18,0.47,0.06,0.05
North Dakota,Cavalier County,48.7723,-98.4648,0.74,0.23,0.51,0.146,0.272,0.165,0.222,0.195,0.41800000000000004,0.41700000000000004,Republican,0.95,0,0.0092,64798,0.08,0.31,0.16,0.04
Kentucky,Todd County,36.8357,-87.1792,0.76,0.22,0.53,0.058,0.147,0.135,0.266,0.394,0.205,0.66,Republican,0.87,0.08,0.0393,44005,0.23,0.4,0.08,0.05
Rhode Island,Newport County,41.5564,-71.2368,0.34,0.64,-0.3,0.004,0.006,0.046,0.129,0.815,0.01,0.944,Democrat,0.9,0.04,0.0262,79454,0.06,0.22,0.29,0.2
Maryland,Calvert County,38.5434,-76.5687,0.52,0.46,0.06,0.049,0.049,0.071,0.11,0.72,0.098,0.83,Republican,0.81,0.12,0.0285,109313,0.05,0.3,0.18,0.14
Ohio,Scioto County,38.804,-82.9928,0.71,0.28,0.42,0.121,0.096,0.242,0.156,0.387,0.217,0.543,Republican,0.94,0.03,0.0378,41330,0.15,0.41,0.09,0.07
California,Nevada County,39.3014,-120.7685,0.41,0.56,-0.15,0.003,0.054,0.084,0.177,0.682,0.057,0.859,Democrat,0.92,0.01,0.0253,66096,0.06,0.18,0.24,0.13
North Dakota,Traill County,47.4542,-97.1616,0.61,0.36,0.25,0.144,0.115,0.205,0.233,0.303,0.259,0.536,Republican,0.93,0.01,0.0193,64453,0.07,0.26,0.21,0.08
North Carolina,Surry County,36.4148,-80.6881,0.75,0.24,0.51,0.019,0.041,0.1,0.382,0.458,0.06,0.8400000000000001,Republican,0.91,0.04,0.0224,43597,0.21,0.29,0.12,0.06
Maryland,St. Mary's County,38.3024,-76.6058,0.55,0.42,0.14,0.04,0.009,0.036,0.152,0.763,0.049,0.915,Republican,0.78,0.15,0.0212,89845,0.1,0.3,0.19,0.13
New York,Yates County,42.6334,-77.1055,0.58,0.39,0.19,0,0.006,0.023,0.087,0.884,0.006,0.971,Republican,0.96,0.01,0.0243,56563,0.14,0.33,0.14,0.11
Florida,Columbia County,30.2242,-82.6215,0.72,0.27,0.45,0.047,0.026,0.288,0.254,0.385,0.073,0.639,Republican,0.77,0.18,0.0444,46494,0.14,0.37,0.1,0.05
Kansas,Franklin County,38.5645,-95.2859,0.68,0.3,0.38,0.063,0.06,0.159,0.354,0.364,0.123,0.718,Republican,0.93,0.01,0.0245,56582,0.08,0.38,0.13,0.07
Arkansas,Izard County,36.0949,-91.9134,0.8,0.18,0.62,0.086,0.121,0.133,0.23,0.43,0.207,0.66,Republican,0.94,0.02,0.0391,42876,0.16,0.38,0.09,0.04
Washington,Grant County,47.2057,-119.4518,0.66,0.31,0.34,0.032,0.052,0.108,0.146,0.661,0.08399999999999999,0.807,Republican,0.69,0.01,0.0383,55556,0.23,0.27,0.12,0.05
Colorado,Summit County,39.6342,-106.1164,0.29,0.68,-0.4,0,0.001,0.064,0.151,0.784,0.001,0.935,Democrat,0.91,0.01,0.0247,79277,0.07,0.18,0.38,0.15
Texas,Potter County,35.4013,-101.8939,0.68,0.3,0.39,0.067,0.063,0.113,0.272,0.485,0.13,0.757,Republican,0.78,0.1,0.0205,42528,0.23,0.32,0.1,0.05
Ohio,Miami County,40.0535,-84.2289,0.71,0.27,0.44,0.077,0.07,0.19,0.227,0.436,0.14700000000000002,0.663,Republican,0.94,0.02,0.0309,61041,0.09,0.37,0.14,0.09
Nevada,Storey County,39.4469,-119.5293,0.66,0.31,0.35,0.015,0.038,0.039,0.126,0.782,0.053,0.908,Republican,0.88,0.02,0.0148,66292,0.06,0.28,0.22,0.1
Indiana,Crawford County,38.2924,-86.4517,0.7,0.27,0.43,0.067,0.089,0.118,0.261,0.465,0.156,0.726,Republican,0.97,0,0.0194,41662,0.2,0.46,0.06,0.04
Texas,Brazoria County,29.1897,-95.4519,0.58,0.4,0.18,0.021,0.042,0.075,0.17,0.691,0.063,0.861,Republican,0.72,0.14,0.0283,81447,0.12,0.26,0.2,0.1
Nebraska,Cheyenne County,41.2198,-102.995,0.8,0.18,0.62,0.116,0.159,0.164,0.338,0.223,0.275,0.561,Republican,0.95,0.01,0.016,53871,0.06,0.28,0.19,0.06
Virginia,Buckingham County,37.5722,-78.5288,0.56,0.43,0.13,0.02,0.01,0.124,0.132,0.714,0.03,0.846,Republican,0.62,0.34,0.0354,49025,0.2,0.43,0.07,0.05
Illinois,Union County,37.4713,-89.2551,0.69,0.29,0.4,0.1,0.078,0.162,0.195,0.466,0.178,0.661,Republican,0.94,0.02,0.0348,50625,0.12,0.35,0.15,0.07
Georgia,Effingham County,32.3673,-81.3413,0.74,0.24,0.5,0.044,0.064,0.145,0.272,0.475,0.108,0.747,Republican,0.82,0.13,0.0238,66822,0.12,0.37,0.13,0.07
New York,Richmond County,40.5808,-74.1524,0.57,0.42,0.15,0.033,0.015,0.046,0.178,0.728,0.048,0.9059999999999999,Republican,0.74,0.1,0.0269,82783,0.11,0.3,0.2,0.14
Nebraska,Richardson County,40.125,-95.7175,0.74,0.24,0.5,0.098,0.185,0.166,0.252,0.298,0.28300000000000003,0.55,Republican,0.94,0,0.0209,47917,0.08,0.36,0.14,0.05
Georgia,Jenkins County,32.7924,-81.9635,0.63,0.37,0.26,0.114,0.053,0.084,0.261,0.488,0.167,0.749,Republican,0.59,0.35,0.0222,27375,0.21,0.45,0.05,0.03
Georgia,Clayton County,33.5419,-84.3576,0.14,0.85,-0.71,0.038,0.054,0.125,0.159,0.624,0.092,0.783,Democrat,0.16,0.69,0.0501,47864,0.15,0.34,0.13,0.07
Georgia,Rabun County,34.8817,-83.4021,0.78,0.21,0.57,0.1,0.083,0.124,0.229,0.464,0.183,0.6930000000000001,Republican,0.92,0.03,0.0191,42500,0.15,0.33,0.13,0.11
Texas,Andrews County,32.305,-102.6377,0.84,0.14,0.7,0.09,0.044,0.067,0.202,0.597,0.134,0.7989999999999999,Republican,0.89,0.01,0.0243,76158,0.28,0.35,0.08,0.05
Arkansas,Union County,33.1713,-92.5972,0.63,0.34,0.29,0.116,0.179,0.098,0.262,0.344,0.295,0.606,Republican,0.64,0.33,0.0265,44663,0.15,0.36,0.15,0.06
Ohio,Guernsey County,40.052,-81.4943,0.74,0.25,0.48,0.101,0.162,0.137,0.181,0.419,0.263,0.6,Republican,0.95,0.01,0.0331,45917,0.14,0.43,0.09,0.06
Iowa,Henry County,40.988,-91.5445,0.65,0.33,0.32,0.123,0.142,0.091,0.183,0.461,0.265,0.644,Republican,0.92,0.02,0.0335,53501,0.07,0.36,0.14,0.05
Wisconsin,Outagamie County,44.4161,-88.4649,0.54,0.44,0.1,0.085,0.124,0.135,0.302,0.353,0.20900000000000002,0.655,Republican,0.9,0.01,0.0194,65572,0.06,0.32,0.21,0.09
Wisconsin,Pierce County,44.7194,-92.4224,0.55,0.42,0.13,0.063,0.094,0.144,0.25,0.449,0.157,0.6990000000000001,Republican,0.96,0.01,0.0165,72323,0.05,0.32,0.19,0.1
Texas,Franklin County,33.1755,-95.2184,0.83,0.16,0.67,0.013,0.055,0.131,0.327,0.474,0.068,0.8009999999999999,Republican,0.86,0.04,0.0384,53783,0.09,0.28,0.19,0.07
Indiana,Adams County,40.7457,-84.9366,0.75,0.23,0.52,0.136,0.047,0.16,0.348,0.309,0.183,0.657,Republican,0.96,0.01,0.0227,52504,0.15,0.41,0.11,0.05
Minnesota,Otter Tail County,46.4088,-95.708,0.65,0.33,0.33,0.078,0.182,0.278,0.17,0.291,0.26,0.46099999999999997,Republican,0.95,0.01,0.0194,58682,0.08,0.3,0.17,0.08
Wisconsin,Taylor County,45.2116,-90.5012,0.72,0.25,0.46,0.201,0.165,0.09,0.12,0.424,0.366,0.544,Republican,0.97,0,0.0243,53020,0.12,0.43,0.1,0.05
Iowa,Delaware County,42.4712,-91.3673,0.67,0.32,0.35,0.035,0.137,0.137,0.408,0.283,0.17200000000000001,0.691,Republican,0.98,0,0.0138,63750,0.08,0.43,0.12,0.05
Montana,Cascade County,47.308,-111.347,0.58,0.39,0.2,0.17,0.143,0.16,0.145,0.382,0.313,0.527,Republican,0.88,0.01,0.0228,49913,0.08,0.33,0.17,0.08
Virginia,Norton city,36.9314,-82.6262,0.69,0.29,0.4,0.017,0.056,0.085,0.155,0.687,0.07300000000000001,0.8420000000000001,Republican,0.9,0.03,0.062,29000,0.16,0.24,0.15,0.08
Indiana,Posey County,38.0218,-87.8685,0.7,0.29,0.41,0.132,0.056,0.115,0.226,0.472,0.188,0.698,Republican,0.96,0.02,0.0258,64196,0.07,0.38,0.16,0.06
Arkansas,Phillips County,34.4283,-90.848,0.39,0.58,-0.19,0.052,0.061,0.134,0.276,0.477,0.11299999999999999,0.753,Democrat,0.36,0.63,0.0559,29320,0.2,0.32,0.09,0.05
Utah,Sanpete County,39.3739,-111.5763,0.83,0.14,0.69,0.107,0.043,0.104,0.273,0.473,0.15,0.746,Republican,0.88,0.01,0.034,53838,0.1,0.29,0.14,0.06
Georgia,Colquitt County,31.1884,-83.7688,0.73,0.26,0.47,0.108,0.191,0.074,0.233,0.394,0.299,0.627,Republican,0.64,0.23,0.0452,36435,0.25,0.39,0.07,0.06
New York,Ulster County,41.8881,-74.2586,0.39,0.6,-0.21,0.014,0.023,0.045,0.1,0.818,0.037,0.9179999999999999,Democrat,0.85,0.06,0.0308,64304,0.09,0.3,0.17,0.15
West Virginia,Wyoming County,37.6096,-81.5492,0.86,0.13,0.72,0.073,0.098,0.176,0.245,0.408,0.17099999999999999,0.653,Republican,0.97,0.01,0.0536,42332,0.2,0.49,0.05,0.04
Georgia,Pickens County,34.4643,-84.4656,0.82,0.16,0.66,0.038,0.118,0.101,0.188,0.555,0.156,0.7430000000000001,Republican,0.89,0.01,0.0283,67631,0.15,0.31,0.14,0.09
Montana,Powder River County,45.395,-105.6302,0.85,0.14,0.72,0.193,0.24,0.106,0.188,0.273,0.433,0.461,Republican,0.94,0,7e-4,54427,0.06,0.3,0.21,0.04
Louisiana,Vernon Parish,31.1083,-93.1842,0.82,0.17,0.65,0.092,0.066,0.145,0.244,0.453,0.158,0.6970000000000001,Republican,0.76,0.15,0.0401,49141,0.13,0.4,0.13,0.05
New York,Jefferson County,44.0494,-75.921,0.58,0.39,0.19,0.008,0.058,0.038,0.116,0.78,0.066,0.896,Republican,0.86,0.06,0.0325,52685,0.09,0.35,0.13,0.09
Louisiana,Terrebonne Parish,29.4148,-90.8663,0.74,0.24,0.5,0.068,0.052,0.14,0.221,0.519,0.12,0.74,Republican,0.7,0.19,0.0363,48747,0.21,0.39,0.11,0.05
Illinois,Ogle County,42.0426,-89.3207,0.62,0.36,0.26,0.053,0.045,0.129,0.184,0.589,0.098,0.7729999999999999,Republican,0.94,0.01,0.0378,60986,0.1,0.33,0.14,0.07
Florida,St. Lucie County,27.3773,-80.472,0.5,0.49,0.02,0.077,0.022,0.08,0.173,0.648,0.099,0.821,Republican,0.73,0.2,0.0308,52322,0.14,0.33,0.14,0.08
Tennessee,Meigs County,35.5128,-84.8134,0.81,0.18,0.63,0.08,0.118,0.136,0.214,0.453,0.198,0.667,Republican,0.96,0.02,0.046,49167,0.16,0.45,0.06,0.04
Iowa,Butler County,42.7316,-92.7902,0.68,0.3,0.39,0.052,0.094,0.208,0.23,0.417,0.146,0.647,Republican,0.97,0.01,0.0185,57115,0.07,0.38,0.13,0.04
Kansas,Seward County,37.1933,-100.8513,0.64,0.34,0.3,0.138,0.14,0.092,0.226,0.403,0.278,0.629,Republican,0.59,0.05,0.0358,49291,0.34,0.29,0.07,0.04
Oklahoma,Oklahoma County,35.5515,-97.4072,0.49,0.48,0.01,0.096,0.064,0.097,0.225,0.518,0.16,0.743,Republican,0.68,0.15,0.0291,54520,0.13,0.26,0.2,0.12
Iowa,Emmet County,43.3779,-94.6784,0.67,0.31,0.36,0.241,0.083,0.067,0.181,0.428,0.324,0.609,Republican,0.95,0.02,0.0226,51563,0.09,0.33,0.14,0.05
Mississippi,Benton County,34.8173,-89.1885,0.6,0.39,0.21,0.018,0.014,0.246,0.233,0.489,0.032,0.722,Republican,0.61,0.34,0.0283,36258,0.27,0.33,0.06,0.06
Florida,Gilchrist County,29.7258,-82.8004,0.82,0.18,0.64,0.016,0.151,0.069,0.324,0.44,0.16699999999999998,0.764,Republican,0.91,0.06,0.0232,43640,0.15,0.42,0.09,0.04
Indiana,Greene County,39.0364,-86.962,0.75,0.23,0.52,0.099,0.027,0.081,0.235,0.558,0.126,0.793,Republican,0.98,0,0.0276,51613,0.12,0.41,0.1,0.05
Kansas,Thomas County,39.3509,-101.0556,0.82,0.16,0.65,0.188,0.157,0.208,0.184,0.263,0.345,0.447,Republican,0.94,0.02,0.0155,60124,0.07,0.26,0.16,0.06
Indiana,Allen County,41.0909,-85.0666,0.54,0.43,0.11,0.07,0.14,0.099,0.228,0.464,0.21000000000000002,0.6920000000000001,Republican,0.79,0.11,0.0328,54857,0.11,0.28,0.19,0.1
Oklahoma,Craig County,36.7618,-95.2085,0.78,0.2,0.58,0.247,0.113,0.236,0.112,0.292,0.36,0.40399999999999997,Republican,0.65,0.03,0.0258,43329,0.13,0.4,0.1,0.04
Indiana,Starke County,41.2809,-86.6476,0.73,0.26,0.47,0.177,0.151,0.088,0.219,0.365,0.32799999999999996,0.584,Republican,0.97,0.01,0.0279,51190,0.15,0.42,0.08,0.04
Maryland,Worcester County,38.2128,-75.334,0.59,0.4,0.19,0.003,0.004,0.042,0.11,0.842,0.007,0.952,Republican,0.83,0.13,0.0284,63499,0.09,0.32,0.19,0.1
Texas,Terrell County,30.225,-102.0765,0.73,0.26,0.47,0.021,0.061,0.167,0.154,0.597,0.082,0.751,Republican,0.66,0.01,0.0039,43208,0.14,0.27,0.11,0.07
Virginia,Powhatan County,37.5502,-77.9152,0.71,0.27,0.44,0.012,0.092,0.074,0.162,0.66,0.104,0.8220000000000001,Republican,0.87,0.1,0.0132,89090,0.1,0.3,0.21,0.08
New Jersey,Gloucester County,39.7173,-75.1414,0.48,0.5,-0.02,0.047,0.01,0.052,0.145,0.746,0.057,0.891,Democrat,0.81,0.1,0.0372,87283,0.07,0.32,0.22,0.11
Alabama,Coosa County,32.9362,-86.2477,0.66,0.33,0.33,0.055,0.131,0.167,0.263,0.384,0.186,0.647,Republican,0.66,0.34,0.0136,38990,0.2,0.4,0.09,0.04
Alabama,Blount County,33.9809,-86.5674,0.9,0.1,0.8,0.053,0.114,0.18,0.194,0.459,0.167,0.653,Republican,0.95,0.02,0.0166,49358,0.2,0.33,0.09,0.04
Illinois,Whiteside County,41.7562,-89.9141,0.53,0.45,0.08,0.025,0.066,0.042,0.218,0.649,0.091,0.867,Republican,0.94,0.02,0.0274,54232,0.09,0.38,0.12,0.06
Kentucky,Meade County,37.9697,-86.217,0.72,0.26,0.46,0.018,0.154,0.115,0.154,0.559,0.172,0.7130000000000001,Republican,0.92,0.04,0.0356,56603,0.11,0.35,0.11,0.08
South Dakota,Beadle County,44.4145,-98.2781,0.68,0.3,0.38,0.234,0.104,0.147,0.173,0.342,0.338,0.515,Republican,0.81,0.01,0.0103,52313,0.16,0.34,0.14,0.06
Wisconsin,Menominee County,45.0044,-88.71,0.17,0.82,-0.64,0.042,0.103,0.31,0.246,0.3,0.145,0.546,Democrat,0.11,0,0.0448,40921,0.08,0.43,0.1,0.08
Kentucky,Boyd County,38.3596,-82.6878,0.66,0.33,0.33,0.084,0.125,0.202,0.235,0.354,0.20900000000000002,0.589,Republican,0.94,0.02,0.0404,48308,0.12,0.34,0.11,0.09
Minnesota,Mille Lacs County,45.938,-93.6301,0.68,0.3,0.38,0.224,0.122,0.159,0.146,0.349,0.346,0.495,Republican,0.9,0,0.0373,56135,0.1,0.39,0.1,0.04
Wisconsin,Jackson County,44.3192,-90.8052,0.57,0.42,0.15,0.027,0.1,0.14,0.329,0.404,0.127,0.7330000000000001,Republican,0.87,0.02,0.0288,53650,0.1,0.42,0.09,0.05
Arkansas,Fulton County,36.3817,-91.8182,0.77,0.2,0.57,0.105,0.121,0.226,0.197,0.351,0.22599999999999998,0.548,Republican,0.96,0,0.0243,35405,0.14,0.36,0.09,0.03
Kentucky,Scott County,38.2915,-84.5839,0.61,0.36,0.25,0.04,0.044,0.076,0.081,0.759,0.08399999999999999,0.84,Republican,0.88,0.05,0.023,70817,0.09,0.3,0.17,0.11
West Virginia,Wayne County,38.1459,-82.427,0.74,0.24,0.5,0.111,0.119,0.186,0.162,0.423,0.22999999999999998,0.585,Republican,0.98,0.01,0.0271,37988,0.2,0.41,0.1,0.05
Nebraska,Dawson County,40.8699,-99.8196,0.71,0.27,0.44,0.096,0.114,0.115,0.348,0.328,0.21000000000000002,0.6759999999999999,Republican,0.87,0.06,0.0242,53721,0.22,0.32,0.12,0.04
Georgia,Pike County,33.0923,-84.3892,0.85,0.14,0.71,0.059,0.06,0.147,0.192,0.542,0.119,0.734,Republican,0.88,0.09,0.0319,64878,0.12,0.42,0.09,0.08
Virginia,Winchester city,39.1735,-78.1746,0.43,0.55,-0.11,0.025,0.056,0.032,0.277,0.611,0.081,0.888,Democrat,0.82,0.1,0.0206,58818,0.16,0.25,0.2,0.15
Arizona,Santa Cruz County,31.5259,-110.8465,0.32,0.67,-0.35,0.028,0.002,0.058,0.074,0.837,0.03,0.9109999999999999,Democrat,0.86,0.01,0.0402,41259,0.23,0.29,0.13,0.07
Michigan,Lapeer County,43.0901,-83.2218,0.67,0.31,0.36,0.036,0.105,0.104,0.133,0.622,0.141,0.755,Republican,0.96,0.01,0.0331,62641,0.09,0.36,0.13,0.06
Pennsylvania,Blair County,40.481,-78.3486,0.71,0.28,0.44,0.041,0.132,0.083,0.249,0.495,0.17300000000000001,0.744,Republican,0.95,0.02,0.025,49181,0.09,0.45,0.14,0.07
Colorado,Montrose County,38.4022,-108.2693,0.67,0.31,0.36,0.085,0.092,0.074,0.314,0.436,0.177,0.75,Republican,0.94,0,0.0352,50489,0.11,0.31,0.18,0.07
Texas,Oldham County,35.405,-102.6028,0.91,0.08,0.83,0.084,0.065,0.109,0.278,0.464,0.14900000000000002,0.742,Republican,0.92,0.03,0.0088,64545,0.1,0.37,0.15,0.07
Oregon,Curry County,42.4576,-124.1568,0.57,0.41,0.16,0.025,0.058,0.1,0.162,0.655,0.083,0.8170000000000001,Republican,0.91,0,0.0347,48440,0.1,0.27,0.15,0.1
Wisconsin,Racine County,42.7475,-88.0612,0.51,0.47,0.04,0.061,0.067,0.167,0.193,0.512,0.128,0.7050000000000001,Republican,0.81,0.11,0.0273,61336,0.1,0.32,0.17,0.09
Utah,Kane County,37.2851,-111.8878,0.72,0.26,0.46,0.061,0.041,0.226,0.227,0.445,0.10200000000000001,0.672,Republican,0.93,0,0.0192,47044,0.08,0.22,0.18,0.12
Minnesota,Freeborn County,43.6738,-93.3488,0.57,0.41,0.16,0.135,0.085,0.206,0.283,0.291,0.22000000000000003,0.574,Republican,0.92,0.01,0.024,53631,0.11,0.35,0.12,0.05
Texas,Stonewall County,33.1792,-100.2534,0.84,0.16,0.68,0.084,0.122,0.12,0.224,0.449,0.20600000000000002,0.673,Republican,0.92,0.02,0.0153,51250,0.19,0.34,0.1,0.05
Virginia,Frederick County,39.2046,-78.2625,0.63,0.35,0.27,0.026,0.048,0.048,0.264,0.614,0.074,0.878,Republican,0.91,0.04,0.0209,78002,0.11,0.32,0.16,0.12
Wisconsin,Wood County,44.4553,-90.0416,0.59,0.4,0.19,0.131,0.177,0.215,0.181,0.296,0.308,0.477,Republican,0.94,0.01,0.024,54913,0.07,0.38,0.14,0.08
Washington,Jefferson County,47.7489,-123.5952,0.28,0.69,-0.41,0.011,0,0.064,0.171,0.754,0.011,0.925,Democrat,0.91,0.01,0.0251,55127,0.05,0.21,0.24,0.2
Montana,Mineral County,47.1472,-114.9983,0.71,0.27,0.45,0.097,0.278,0.119,0.183,0.323,0.375,0.506,Republican,0.93,0.01,0.0331,41705,0.11,0.37,0.11,0.05
Idaho,Custer County,44.2411,-114.2817,0.76,0.22,0.54,0.069,0.029,0.199,0.244,0.458,0.098,0.702,Republican,0.91,0,0.0154,40875,0.11,0.29,0.19,0.06
South Dakota,Aurora County,43.718,-98.5616,0.75,0.23,0.52,0.239,0.073,0.236,0.15,0.302,0.312,0.45199999999999996,Republican,0.92,0.02,0.0089,64083,0.13,0.33,0.16,0.05
West Virginia,Marshall County,39.8606,-80.6634,0.74,0.25,0.5,0.075,0.095,0.077,0.256,0.497,0.16999999999999998,0.753,Republican,0.97,0.01,0.0219,48557,0.08,0.45,0.11,0.07
Oklahoma,Alfalfa County,36.7311,-98.324,0.87,0.1,0.77,0.203,0.096,0.188,0.25,0.262,0.29900000000000004,0.512,Republican,0.85,0.03,0.0109,61852,0.15,0.37,0.15,0.07
New York,Montgomery County,42.9023,-74.4397,0.6,0.38,0.23,0.102,0.005,0.054,0.09,0.749,0.107,0.839,Republican,0.87,0.02,0.0391,49462,0.13,0.35,0.1,0.07
Ohio,Franklin County,39.9695,-83.0093,0.33,0.65,-0.31,0.042,0.054,0.09,0.198,0.617,0.096,0.815,Democrat,0.66,0.23,0.0343,61305,0.09,0.25,0.25,0.15
Texas,Gillespie County,30.318,-98.9466,0.79,0.2,0.59,0.095,0.091,0.107,0.114,0.592,0.186,0.706,Republican,0.91,0,0.0247,59155,0.11,0.3,0.23,0.09
North Carolina,Mecklenburg County,35.2467,-80.8328,0.32,0.67,-0.35,0.029,0.037,0.075,0.166,0.694,0.066,0.86,Democrat,0.54,0.32,0.0338,66641,0.1,0.17,0.3,0.16
South Dakota,Hyde County,44.5473,-99.4871,0.79,0.19,0.6,0.142,0.053,0.142,0.234,0.43,0.19499999999999998,0.664,Republican,0.88,0.02,0.0036,57788,0.07,0.36,0.18,0.07
West Virginia,Gilmer County,38.924,-80.8571,0.76,0.23,0.53,0.141,0.076,0.144,0.236,0.403,0.21699999999999997,0.639,Republican,0.83,0.12,0.0472,42636,0.15,0.45,0.1,0.07
North Carolina,Guilford County,36.0795,-79.7889,0.38,0.61,-0.23,0.04,0.055,0.117,0.199,0.588,0.095,0.7869999999999999,Democrat,0.55,0.34,0.0358,53261,0.11,0.23,0.23,0.13
Nebraska,Buffalo County,40.8552,-99.075,0.7,0.27,0.43,0.065,0.113,0.104,0.327,0.391,0.178,0.718,Republican,0.92,0.01,0.0193,59431,0.07,0.26,0.23,0.12
Texas,Calhoun County,28.5067,-96.602,0.72,0.27,0.44,0.019,0.028,0.179,0.071,0.703,0.047,0.7739999999999999,Republican,0.86,0.03,0.0332,58776,0.21,0.33,0.09,0.05
Wisconsin,Douglas County,46.4329,-91.9162,0.44,0.54,-0.09,0.044,0.042,0.092,0.327,0.495,0.086,0.8220000000000001,Democrat,0.93,0.01,0.0249,53986,0.06,0.31,0.16,0.08
North Dakota,Hettinger County,46.4325,-102.4603,0.83,0.15,0.68,0.218,0.207,0.15,0.232,0.193,0.425,0.42500000000000004,Republican,0.92,0,0.0136,60164,0.13,0.34,0.1,0.03
Georgia,Talbot County,32.6995,-84.533,0.4,0.6,-0.2,0.168,0.08,0.089,0.171,0.492,0.248,0.663,Democrat,0.41,0.58,0.0252,38549,0.18,0.46,0.07,0.06
Arkansas,Drew County,33.5895,-91.72,0.63,0.35,0.28,0.063,0.049,0.207,0.159,0.523,0.112,0.682,Republican,0.68,0.29,0.0215,46997,0.13,0.35,0.15,0.07
Louisiana,West Feliciana Parish,30.8798,-91.42,0.62,0.37,0.25,0.072,0.13,0.037,0.265,0.496,0.202,0.761,Republican,0.53,0.44,0.0408,59637,0.18,0.32,0.18,0.06
South Dakota,Mellette County,43.5813,-100.76,0.58,0.39,0.2,0.136,0.028,0.091,0.34,0.405,0.164,0.7450000000000001,Republican,0.39,0,0.0276,30650,0.18,0.4,0.1,0.02
Kansas,Sedgwick County,37.6848,-97.461,0.55,0.43,0.13,0.06,0.055,0.126,0.26,0.499,0.11499999999999999,0.759,Republican,0.78,0.09,0.034,56524,0.1,0.26,0.2,0.11
Virginia,Warren County,38.9087,-78.2085,0.67,0.31,0.35,0.027,0.017,0.088,0.2,0.669,0.044,0.869,Republican,0.89,0.04,0.0342,69116,0.13,0.36,0.15,0.07
Kentucky,Warren County,36.9936,-86.4238,0.57,0.41,0.17,0.076,0.067,0.063,0.185,0.609,0.14300000000000002,0.794,Republican,0.82,0.09,0.0302,52270,0.12,0.27,0.19,0.13
Kentucky,Ohio County,37.4782,-86.8489,0.77,0.22,0.56,0.064,0.145,0.109,0.19,0.492,0.209,0.6819999999999999,Republican,0.97,0.01,0.0449,45564,0.17,0.43,0.07,0.07
Indiana,Monroe County,39.1609,-86.5231,0.35,0.63,-0.28,0.037,0.037,0.094,0.242,0.591,0.074,0.833,Democrat,0.86,0.03,0.0335,49839,0.07,0.22,0.24,0.21
Nebraska,Thurston County,42.1582,-96.544,0.5,0.47,0.02,0.123,0.153,0.119,0.187,0.418,0.276,0.605,Republican,0.38,0,0.0879,51034,0.11,0.33,0.11,0.05
South Dakota,Union County,42.8326,-96.656,0.67,0.31,0.36,0.082,0.177,0.12,0.204,0.418,0.259,0.622,Republican,0.94,0.01,0.0126,70378,0.07,0.29,0.19,0.12
Texas,Crockett County,30.7231,-101.412,0.78,0.22,0.56,0.026,0.071,0.072,0.225,0.606,0.09699999999999999,0.831,Republican,0.43,0.01,0,47386,0.23,0.34,0.1,0.04
California,Humboldt County,40.6993,-123.8756,0.32,0.65,-0.33,0.042,0.006,0.018,0.069,0.865,0.048,0.9339999999999999,Democrat,0.8,0.01,0.0467,48041,0.1,0.22,0.2,0.1
Georgia,Upson County,32.8813,-84.2993,0.67,0.33,0.34,0.16,0.1,0.114,0.206,0.421,0.26,0.627,Republican,0.68,0.28,0.0301,37640,0.18,0.38,0.08,0.05
Oklahoma,Osage County,36.6292,-96.3985,0.69,0.29,0.4,0.077,0.103,0.23,0.218,0.372,0.18,0.59,Republican,0.65,0.11,0.0322,49103,0.12,0.38,0.13,0.05
Texas,Gray County,35.4012,-100.8126,0.88,0.11,0.77,0.139,0.069,0.134,0.222,0.436,0.20800000000000002,0.658,Republican,0.85,0.04,0.0306,47952,0.2,0.33,0.1,0.04
Wyoming,Uinta County,41.2876,-110.5476,0.8,0.17,0.63,0.098,0.278,0.154,0.207,0.264,0.376,0.471,Republican,0.93,0,0.0412,63403,0.07,0.42,0.11,0.05
Tennessee,Lake County,36.3352,-89.4935,0.73,0.26,0.47,0.133,0.143,0.166,0.201,0.357,0.276,0.558,Republican,0.68,0.29,0.0267,35191,0.27,0.43,0.06,0.03
Texas,Victoria County,28.7964,-96.9715,0.68,0.3,0.38,0.008,0.039,0.138,0.058,0.757,0.047,0.8150000000000001,Republican,0.87,0.06,0.0357,56834,0.16,0.31,0.13,0.07
Arkansas,Sevier County,33.9972,-94.2412,0.75,0.21,0.53,0.12,0.093,0.155,0.165,0.467,0.213,0.632,Republican,0.63,0.05,0.0334,47704,0.23,0.37,0.08,0.05
Missouri,Marion County,39.8059,-91.6224,0.74,0.24,0.5,0.178,0.093,0.212,0.185,0.332,0.271,0.517,Republican,0.92,0.04,0.0277,48784,0.12,0.37,0.15,0.08
Iowa,Page County,40.7391,-95.1502,0.71,0.28,0.43,0.088,0.053,0.068,0.31,0.481,0.141,0.7909999999999999,Republican,0.94,0.02,0.0269,51867,0.08,0.36,0.15,0.05
Missouri,Jackson County,39.0085,-94.3461,0.38,0.6,-0.22,0.027,0.066,0.088,0.21,0.609,0.093,0.819,Democrat,0.67,0.23,0.0297,55134,0.09,0.28,0.2,0.12
Mississippi,Attala County,33.0863,-89.5815,0.59,0.4,0.19,0.065,0.104,0.092,0.139,0.601,0.16899999999999998,0.74,Republican,0.54,0.42,0.0526,33767,0.22,0.32,0.09,0.05
Mississippi,Jefferson County,31.7343,-91.0373,0.14,0.85,-0.71,0.076,0.083,0.137,0.15,0.555,0.159,0.7050000000000001,Democrat,0.13,0.86,0.0387,25019,0.22,0.38,0.08,0.08
Massachusetts,Dukes County,41.3961,-70.6501,0.21,0.77,-0.57,0.006,0.01,0.037,0.16,0.786,0.016,0.9460000000000001,Democrat,0.88,0.05,0.0214,71811,0.05,0.24,0.26,0.18
Iowa,Mills County,41.0334,-95.6213,0.68,0.3,0.37,0.064,0.084,0.091,0.281,0.481,0.14800000000000002,0.762,Republican,0.96,0.01,0.0262,72079,0.07,0.34,0.17,0.07
Tennessee,Robertson County,36.5255,-86.8706,0.73,0.26,0.47,0.187,0.069,0.081,0.159,0.504,0.256,0.663,Republican,0.87,0.07,0.0318,63307,0.13,0.38,0.14,0.06
Georgia,Brooks County,30.842,-83.5802,0.6,0.39,0.21,0.092,0.165,0.124,0.235,0.385,0.257,0.62,Republican,0.6,0.36,0.0434,38285,0.15,0.35,0.13,0.05
Kansas,Finney County,38.0443,-100.737,0.62,0.36,0.26,0.166,0.089,0.163,0.239,0.343,0.255,0.5820000000000001,Republican,0.81,0.03,0.0289,60798,0.29,0.22,0.11,0.06
Kentucky,Lawrence County,38.0679,-82.7348,0.81,0.18,0.63,0.155,0.091,0.151,0.125,0.479,0.246,0.604,Republican,0.99,0,0.0346,32798,0.25,0.43,0.05,0.05
Vermont,Caledonia County,44.4647,-72.1022,0.41,0.56,-0.15,0.076,0.121,0.078,0.154,0.57,0.197,0.724,Democrat,0.96,0.01,0.0216,50563,0.09,0.35,0.18,0.11
Kansas,Hamilton County,37.9991,-101.7912,0.82,0.16,0.66,0.131,0.095,0.189,0.217,0.368,0.226,0.585,Republican,0.91,0.05,0.0046,46944,0.19,0.4,0.16,0.03
Kansas,Harper County,37.1916,-98.0755,0.81,0.17,0.64,0.079,0.118,0.21,0.193,0.4,0.197,0.593,Republican,0.96,0,0.0331,49865,0.1,0.39,0.09,0.07
Illinois,Fayette County,39.0002,-89.0241,0.8,0.18,0.62,0.069,0.076,0.156,0.229,0.47,0.14500000000000002,0.699,Republican,0.94,0.05,0.0298,46650,0.16,0.4,0.08,0.03
North Carolina,Bladen County,34.6146,-78.5636,0.57,0.43,0.14,0.073,0.023,0.076,0.104,0.724,0.096,0.828,Republican,0.58,0.35,0.0257,36173,0.19,0.33,0.11,0.05
Nebraska,Hall County,40.8726,-98.5022,0.66,0.31,0.35,0.048,0.114,0.103,0.284,0.451,0.162,0.735,Republican,0.84,0.03,0.0282,57104,0.15,0.31,0.15,0.06
Florida,Martin County,27.0775,-80.4315,0.62,0.37,0.25,0.027,0.018,0.066,0.169,0.719,0.045,0.888,Republican,0.88,0.06,0.0229,61133,0.09,0.25,0.22,0.12
Maine,Cumberland County,43.8464,-70.3988,0.31,0.66,-0.36,0.05,0.053,0.046,0.182,0.669,0.10300000000000001,0.851,Democrat,0.92,0.03,0.0211,73072,0.05,0.22,0.29,0.18
Kentucky,Carroll County,38.6678,-85.1236,0.71,0.27,0.44,0.155,0.171,0.12,0.208,0.346,0.326,0.5539999999999999,Republican,0.92,0.03,0.0467,43524,0.22,0.4,0.05,0.03
Missouri,Pulaski County,37.8246,-92.2076,0.72,0.26,0.46,0.208,0.103,0.16,0.175,0.354,0.311,0.5289999999999999,Republican,0.76,0.11,0.0263,53492,0.07,0.28,0.18,0.11
Colorado,Yuma County,40.0029,-102.4242,0.82,0.16,0.67,0.038,0.284,0.133,0.255,0.29,0.32199999999999995,0.5449999999999999,Republican,0.96,0.01,0.0257,52022,0.11,0.34,0.15,0.07
New York,Columbia County,42.2501,-73.6318,0.41,0.57,-0.17,0.014,0.004,0.029,0.104,0.848,0.018000000000000002,0.952,Democrat,0.89,0.05,0.0301,66787,0.1,0.3,0.17,0.15
Arkansas,Desha County,33.8333,-91.254,0.46,0.48,-0.02,0.078,0.033,0.19,0.189,0.509,0.111,0.698,Democrat,0.49,0.47,0.0448,31893,0.19,0.45,0.1,0.04
Mississippi,Washington County,33.2838,-90.9475,0.29,0.69,-0.4,0.138,0.084,0.164,0.114,0.5,0.22200000000000003,0.614,Democrat,0.26,0.72,0.0704,29705,0.21,0.32,0.11,0.07
South Carolina,Beaufort County,32.3855,-80.7302,0.54,0.44,0.1,0.038,0.027,0.055,0.147,0.733,0.065,0.88,Republican,0.75,0.18,0.0264,68377,0.07,0.22,0.24,0.17
Virginia,Dickenson County,37.1258,-82.3504,0.79,0.21,0.58,0.031,0.129,0.129,0.182,0.528,0.16,0.71,Republican,0.98,0.01,0.0182,29932,0.23,0.39,0.07,0.03
Washington,Asotin County,46.1918,-117.203,0.61,0.36,0.26,0.014,0.029,0.115,0.32,0.522,0.043000000000000003,0.8420000000000001,Republican,0.92,0.01,0.0376,53715,0.09,0.28,0.14,0.07
Pennsylvania,Venango County,41.401,-79.758,0.7,0.29,0.41,0.004,0.015,0.115,0.152,0.714,0.019,0.866,Republican,0.97,0.01,0.0382,49945,0.1,0.48,0.13,0.06
Utah,Duchesne County,40.2982,-110.4252,0.88,0.1,0.78,0.051,0.259,0.033,0.469,0.188,0.31,0.657,Republican,0.9,0,0.0407,63224,0.11,0.37,0.11,0.04
Colorado,Montezuma County,37.3386,-108.5966,0.6,0.38,0.22,0.057,0.019,0.081,0.257,0.586,0.076,0.843,Republican,0.81,0,0.0288,49470,0.1,0.29,0.19,0.11
Alabama,Jackson County,34.7795,-85.9994,0.83,0.16,0.67,0.092,0.089,0.11,0.249,0.46,0.181,0.7090000000000001,Republican,0.92,0.03,0.0261,41769,0.17,0.41,0.1,0.04
Arkansas,Ouachita County,33.5934,-92.8819,0.55,0.41,0.13,0.151,0.097,0.06,0.242,0.449,0.248,0.6910000000000001,Republican,0.57,0.42,0.0423,35425,0.14,0.42,0.09,0.06
Mississippi,Carroll County,33.4485,-89.9202,0.69,0.3,0.38,0.08,0.144,0.119,0.12,0.537,0.22399999999999998,0.657,Republican,0.65,0.35,0.0319,46052,0.2,0.35,0.09,0.04
Colorado,Pitkin County,39.2171,-106.9166,0.23,0.75,-0.52,0.019,0.014,0.016,0.318,0.633,0.033,0.9510000000000001,Democrat,0.91,0.01,0.0241,78935,0.03,0.17,0.45,0.15
Georgia,Glascock County,33.2293,-82.6107,0.9,0.1,0.8,0.156,0.066,0.107,0.13,0.541,0.222,0.671,Republican,0.89,0.1,0.0103,45000,0.22,0.41,0.11,0.01
Mississippi,George County,30.8626,-88.644,0.88,0.11,0.77,0.037,0.102,0.088,0.346,0.428,0.13899999999999998,0.774,Republican,0.89,0.08,0.0689,47292,0.16,0.37,0.09,0.05
North Carolina,Chatham County,35.7026,-79.2553,0.44,0.55,-0.12,0.007,0.025,0.063,0.139,0.766,0.032,0.905,Democrat,0.81,0.11,0.0246,67031,0.11,0.21,0.22,0.2
Iowa,Woodbury County,42.3897,-96.0448,0.57,0.41,0.16,0.113,0.165,0.137,0.16,0.425,0.278,0.585,Republican,0.86,0.04,0.0298,59224,0.13,0.32,0.16,0.07
Arizona,Navajo County,35.3997,-110.3214,0.53,0.45,0.08,0.091,0.108,0.059,0.139,0.602,0.199,0.741,Republican,0.47,0.01,0.0585,40067,0.17,0.3,0.09,0.06
Texas,Falls County,31.2533,-96.9359,0.68,0.31,0.37,0.009,0.029,0.061,0.187,0.715,0.038,0.9019999999999999,Republican,0.72,0.25,0.0221,39497,0.23,0.38,0.1,0.03
Florida,Seminole County,28.717,-81.2363,0.48,0.51,-0.03,0.037,0.039,0.066,0.141,0.717,0.076,0.858,Democrat,0.76,0.12,0.0324,66768,0.06,0.21,0.26,0.13
Kentucky,Powell County,37.8311,-83.8237,0.73,0.25,0.49,0.112,0.099,0.102,0.232,0.455,0.21100000000000002,0.687,Republican,0.97,0,0.0337,37469,0.2,0.4,0.1,0.06
Oregon,Deschutes County,43.9151,-121.2281,0.44,0.53,-0.08,0.01,0.061,0.014,0.25,0.666,0.071,0.916,Democrat,0.93,0.01,0.0341,67043,0.06,0.22,0.22,0.13
Texas,Galveston County,29.3931,-94.9629,0.61,0.38,0.23,0.033,0.037,0.105,0.207,0.617,0.07,0.824,Republican,0.79,0.13,0.0399,73330,0.11,0.25,0.2,0.11
Colorado,Gunnison County,38.6668,-107.0316,0.33,0.64,-0.3,0.057,0.039,0.043,0.281,0.581,0.096,0.862,Democrat,0.96,0.01,0.0369,56577,0.03,0.16,0.38,0.18
Nebraska,Burt County,41.8515,-96.3286,0.69,0.28,0.41,0.066,0.063,0.09,0.321,0.46,0.129,0.781,Republican,0.95,0,0.0231,54203,0.09,0.36,0.16,0.05
Missouri,Putnam County,40.4789,-93.0162,0.84,0.15,0.69,0.107,0.111,0.209,0.191,0.382,0.218,0.573,Republican,0.96,0,0.0139,42849,0.1,0.43,0.12,0.08
Nebraska,Johnson County,40.3926,-96.2651,0.68,0.29,0.39,0.061,0.175,0.247,0.207,0.31,0.236,0.517,Republican,0.86,0.06,0.0079,54712,0.14,0.43,0.12,0.05
Texas,Red River County,33.6207,-95.0503,0.78,0.21,0.56,0.059,0.136,0.098,0.254,0.452,0.195,0.706,Republican,0.79,0.17,0.0346,39142,0.15,0.4,0.1,0.03
Georgia,Clinch County,30.915,-82.7063,0.74,0.26,0.48,0.06,0.058,0.134,0.168,0.58,0.118,0.748,Republican,0.66,0.28,0.0278,27658,0.31,0.34,0.06,0.04
Missouri,Clinton County,39.6018,-94.4046,0.72,0.27,0.45,0.066,0.103,0.106,0.209,0.517,0.16899999999999998,0.726,Republican,0.96,0.02,0.0262,62701,0.08,0.4,0.15,0.07
North Carolina,Davie County,35.9291,-80.5445,0.72,0.27,0.45,0.074,0.067,0.037,0.14,0.681,0.14100000000000001,0.8210000000000001,Republican,0.89,0.05,0.0228,60434,0.12,0.32,0.15,0.09
Nevada,Nye County,38.0423,-116.4719,0.69,0.29,0.4,0.061,0.038,0.052,0.183,0.666,0.099,0.849,Republican,0.83,0.02,0.0407,47300,0.14,0.39,0.07,0.03
Tennessee,Lawrence County,35.2173,-87.3956,0.82,0.17,0.65,0.074,0.129,0.156,0.192,0.45,0.203,0.642,Republican,0.95,0.02,0.0437,43614,0.17,0.44,0.09,0.06
Indiana,Wabash County,40.8457,-85.794,0.74,0.24,0.5,0.07,0.11,0.237,0.202,0.381,0.18,0.583,Republican,0.96,0.01,0.0274,54259,0.11,0.43,0.11,0.08
Connecticut,Hartford County,41.8064,-72.7329,0.35,0.63,-0.28,0.015,0.023,0.065,0.13,0.767,0.038,0.897,Democrat,0.71,0.14,0.0384,75148,0.1,0.27,0.21,0.17
Kansas,Johnson County,38.8838,-94.8223,0.45,0.53,-0.08,0.029,0.019,0.075,0.224,0.654,0.048,0.878,Democrat,0.86,0.05,0.0205,89087,0.04,0.14,0.35,0.21
Texas,Polk County,30.7927,-94.83,0.77,0.22,0.55,0.016,0.099,0.052,0.144,0.689,0.115,0.833,Republican,0.84,0.1,0.0376,49279,0.18,0.39,0.09,0.04
Indiana,Ohio County,38.9501,-84.9651,0.76,0.24,0.52,0.06,0.078,0.18,0.223,0.459,0.138,0.682,Republican,0.97,0,0.0103,60128,0.12,0.43,0.09,0.06
South Dakota,Hughes County,44.389,-99.996,0.63,0.34,0.29,0.091,0.027,0.109,0.251,0.523,0.118,0.774,Republican,0.84,0,0.0206,64783,0.08,0.27,0.24,0.1
Georgia,Appling County,31.7492,-82.2889,0.78,0.21,0.57,0.085,0.117,0.23,0.152,0.416,0.202,0.568,Republican,0.75,0.19,0.0212,40304,0.25,0.39,0.06,0.04
Colorado,Routt County,40.4851,-106.9913,0.35,0.63,-0.28,0.008,0.036,0.092,0.375,0.489,0.044,0.864,Democrat,0.96,0.01,0.022,77443,0.03,0.2,0.31,0.19
West Virginia,Preston County,39.4693,-79.6682,0.77,0.22,0.55,0.057,0.028,0.087,0.247,0.58,0.085,0.827,Republican,0.92,0.05,0.0429,51888,0.13,0.47,0.1,0.07
Kentucky,Clark County,37.9708,-84.1474,0.65,0.33,0.32,0.083,0.093,0.11,0.233,0.48,0.176,0.713,Republican,0.93,0.05,0.0335,54953,0.14,0.34,0.13,0.07
Virginia,New Kent County,37.5052,-76.9973,0.67,0.32,0.35,0.008,0.035,0.079,0.17,0.708,0.043000000000000003,0.878,Republican,0.81,0.12,0.0225,87904,0.07,0.34,0.16,0.11
Kentucky,Simpson County,36.742,-86.5822,0.67,0.31,0.37,0.137,0.066,0.162,0.208,0.426,0.203,0.634,Republican,0.86,0.1,0.0275,48623,0.13,0.45,0.09,0.05
Michigan,Montcalm County,43.311,-85.1525,0.68,0.3,0.38,0.028,0.137,0.167,0.21,0.458,0.165,0.668,Republican,0.95,0.02,0.0213,49448,0.11,0.4,0.09,0.04
Georgia,Habersham County,34.631,-83.5311,0.81,0.17,0.64,0.063,0.1,0.116,0.292,0.43,0.163,0.722,Republican,0.86,0.03,0.0166,50563,0.2,0.35,0.11,0.09
Illinois,Shelby County,39.3911,-88.8055,0.78,0.21,0.57,0.07,0.047,0.168,0.245,0.469,0.117,0.714,Republican,0.98,0.01,0.0273,52953,0.08,0.44,0.12,0.05
Missouri,Adair County,40.1906,-92.6007,0.62,0.36,0.26,0.067,0.098,0.187,0.253,0.395,0.165,0.648,Republican,0.92,0.03,0.0301,41929,0.1,0.34,0.15,0.17
South Dakota,Jackson County,43.6943,-101.6281,0.66,0.32,0.34,0.129,0.052,0.136,0.281,0.401,0.181,0.682,Republican,0.39,0,0.0479,33295,0.18,0.34,0.15,0.03
California,Del Norte County,41.7431,-123.8972,0.56,0.41,0.16,0.01,0.135,0.112,0.196,0.547,0.14500000000000002,0.7430000000000001,Republican,0.75,0.03,0.0339,45283,0.2,0.31,0.09,0.06
Oklahoma,Lincoln County,35.703,-96.8809,0.81,0.18,0.63,0.135,0.103,0.204,0.222,0.337,0.238,0.559,Republican,0.85,0.02,0.0255,50671,0.13,0.41,0.11,0.04
Texas,Bailey County,34.068600000000004,-102.8299,0.77,0.22,0.55,0.018,0.106,0.06,0.217,0.598,0.124,0.815,Republican,0.84,0.01,0.0157,52273,0.23,0.35,0.13,0.04
California,Tehama County,40.1256,-122.2341,0.67,0.31,0.36,0.057,0.062,0.141,0.195,0.545,0.119,0.74,Republican,0.86,0.01,0.0459,44514,0.15,0.3,0.11,0.05
Tennessee,Lincoln County,35.1405,-86.589,0.79,0.19,0.6,0.126,0.187,0.106,0.214,0.367,0.313,0.581,Republican,0.9,0.07,0.0231,49485,0.17,0.41,0.12,0.06
West Virginia,Fayette County,38.0288,-81.0812,0.69,0.3,0.39,0.14,0.088,0.226,0.137,0.409,0.228,0.546,Republican,0.93,0.05,0.0357,41394,0.17,0.44,0.1,0.04
New Mexico,Cibola County,34.9125,-107.9997,0.45,0.53,-0.09,0.003,0.059,0.014,0.085,0.839,0.062,0.9239999999999999,Democrat,0.48,0.01,0.0684,39413,0.17,0.32,0.09,0.05
Kansas,Cherokee County,37.1693,-94.8463,0.74,0.24,0.5,0.131,0.121,0.164,0.174,0.41,0.252,0.584,Republican,0.9,0.01,0.0243,43175,0.1,0.33,0.12,0.07
Tennessee,Anderson County,36.1185,-84.1985,0.65,0.33,0.32,0.088,0.105,0.112,0.215,0.48,0.193,0.695,Republican,0.91,0.04,0.0341,50392,0.13,0.33,0.13,0.11
Ohio,Ross County,39.3376,-83.057,0.67,0.32,0.35,0.181,0.103,0.101,0.168,0.447,0.284,0.615,Republican,0.9,0.05,0.0325,51092,0.12,0.43,0.1,0.06
Arkansas,Newton County,35.92,-93.2179,0.8,0.18,0.62,0.107,0.14,0.084,0.261,0.408,0.247,0.669,Republican,0.94,0,0.0163,38082,0.14,0.35,0.14,0.06
Missouri,Platte County,39.3803,-94.7738,0.5,0.47,0.03,0.044,0.04,0.088,0.189,0.638,0.08399999999999999,0.827,Republican,0.85,0.07,0.0266,80393,0.04,0.22,0.26,0.17
Idaho,Teton County,43.7594,-111.2076,0.45,0.52,-0.07,0.099,0.189,0.19,0.25,0.272,0.28800000000000003,0.522,Democrat,0.89,0,0.0393,74216,0.06,0.17,0.3,0.11
Ohio,Coshocton County,40.3017,-81.92,0.74,0.25,0.49,0.077,0.194,0.294,0.178,0.258,0.271,0.436,Republican,0.97,0.01,0.0321,46606,0.15,0.47,0.09,0.04
Iowa,Dubuque County,42.4688,-90.8825,0.5,0.48,0.03,0.037,0.155,0.189,0.189,0.43,0.192,0.619,Republican,0.93,0.04,0.0263,63031,0.07,0.33,0.2,0.11
Indiana,Jackson County,38.9064,-86.0375,0.76,0.22,0.53,0.097,0.098,0.105,0.388,0.312,0.195,0.7,Republican,0.91,0.01,0.0273,51250,0.13,0.42,0.11,0.06
Tennessee,Franklin County,35.155,-86.0922,0.73,0.25,0.48,0.166,0.092,0.13,0.201,0.411,0.258,0.612,Republican,0.9,0.05,0.0214,51585,0.12,0.4,0.12,0.09
Colorado,El Paso County,38.8321,-104.5255,0.54,0.43,0.11,0.031,0.089,0.081,0.196,0.603,0.12,0.7989999999999999,Republican,0.8,0.06,0.0364,68779,0.06,0.2,0.24,0.15
Mississippi,Amite County,31.1744,-90.8044,0.62,0.36,0.26,0.11,0.092,0.122,0.204,0.473,0.202,0.6769999999999999,Republican,0.57,0.42,0.0402,33981,0.18,0.39,0.08,0.05
Nevada,Eureka County,39.9839,-116.2686,0.88,0.1,0.78,0.002,0.054,0.17,0.386,0.387,0.056,0.773,Republican,0.94,0,0,67105,0.05,0.47,0.07,0.02
Illinois,Bond County,38.8868,-89.4356,0.69,0.28,0.41,0.07,0.055,0.108,0.218,0.549,0.125,0.767,Republican,0.91,0.08,0.017,57289,0.11,0.33,0.14,0.09
Indiana,Jasper County,41.023,-87.1161,0.74,0.25,0.49,0.186,0.1,0.065,0.328,0.321,0.28600000000000003,0.649,Republican,0.94,0.01,0.0238,63892,0.12,0.43,0.1,0.04
Missouri,Dade County,37.4321,-93.8503,0.83,0.16,0.67,0.312,0.044,0.138,0.136,0.369,0.356,0.505,Republican,0.95,0,0.0532,40399,0.13,0.45,0.1,0.03
Mississippi,Lee County,34.2899,-88.6804,0.65,0.33,0.32,0.094,0.092,0.13,0.18,0.505,0.186,0.685,Republican,0.67,0.29,0.036,50559,0.16,0.26,0.16,0.09
California,Kern County,35.3429,-118.7299,0.54,0.44,0.1,0.022,0.028,0.105,0.177,0.668,0.05,0.845,Republican,0.74,0.05,0.0571,53350,0.26,0.28,0.11,0.05
Iowa,Sac County,42.3862,-95.1054,0.73,0.25,0.48,0.18,0.071,0.286,0.159,0.303,0.251,0.46199999999999997,Republican,0.97,0.01,0.0168,58232,0.07,0.37,0.14,0.06
Oregon,Josephine County,42.3655,-123.5555,0.61,0.36,0.26,0.028,0.056,0.072,0.192,0.652,0.084,0.8440000000000001,Republican,0.92,0.01,0.0422,45616,0.1,0.31,0.11,0.06
South Carolina,Marion County,34.0801,-79.3625,0.39,0.6,-0.21,0.28,0.036,0.182,0.127,0.376,0.316,0.503,Democrat,0.4,0.57,0.0422,32063,0.21,0.42,0.09,0.05
Georgia,Chattooga County,34.475,-85.3453,0.8,0.18,0.62,0.116,0.102,0.187,0.143,0.451,0.218,0.594,Republican,0.86,0.1,0.0274,36807,0.26,0.4,0.05,0.04
Wisconsin,Waupaca County,44.4705,-88.9648,0.65,0.33,0.32,0.076,0.069,0.206,0.143,0.506,0.14500000000000002,0.649,Republican,0.96,0.01,0.0168,58693,0.08,0.41,0.14,0.06
Virginia,Hopewell city,37.2915,-77.2985,0.42,0.57,-0.15,0.038,0.038,0.149,0.187,0.588,0.076,0.7749999999999999,Democrat,0.51,0.44,0.0406,39030,0.19,0.37,0.11,0.04
Oregon,Umatilla County,45.5919,-118.7368,0.64,0.32,0.32,0.043,0.01,0.081,0.155,0.71,0.053,0.865,Republican,0.86,0.01,0.0422,54699,0.18,0.28,0.11,0.06
Arkansas,Lincoln County,33.9575,-91.7333,0.7,0.27,0.44,0.035,0.016,0.194,0.201,0.554,0.051000000000000004,0.7550000000000001,Republican,0.66,0.31,0.0066,46596,0.19,0.47,0.07,0.03
Louisiana,Caldwell Parish,32.0923,-92.1166,0.83,0.16,0.68,0.102,0.061,0.098,0.241,0.498,0.16299999999999998,0.739,Republican,0.82,0.16,0.035,37691,0.23,0.43,0.11,0.03
Oklahoma,Nowata County,36.7985,-95.6174,0.82,0.16,0.66,0.148,0.121,0.164,0.181,0.386,0.269,0.567,Republican,0.68,0.02,0.0431,43145,0.11,0.44,0.08,0.03
Indiana,Elkhart County,41.5974,-85.8587,0.63,0.35,0.28,0.03,0.097,0.094,0.252,0.528,0.127,0.78,Republican,0.87,0.05,0.0297,57021,0.19,0.35,0.13,0.07
North Carolina,Lee County,35.4752,-79.1715,0.57,0.42,0.15,0.066,0.102,0.081,0.115,0.636,0.16799999999999998,0.751,Republican,0.74,0.2,0.0425,49994,0.17,0.27,0.14,0.07
Illinois,Hamilton County,38.0815,-88.5391,0.79,0.19,0.6,0.138,0.179,0.1,0.21,0.373,0.317,0.583,Republican,0.99,0,0.0167,54046,0.13,0.35,0.09,0.08
Michigan,Cass County,41.9154,-85.9935,0.64,0.35,0.29,0.046,0.076,0.123,0.274,0.48,0.122,0.754,Republican,0.89,0.05,0.0384,55107,0.12,0.33,0.13,0.07
West Virginia,Ritchie County,39.1783,-81.063,0.85,0.14,0.72,0.141,0.059,0.183,0.262,0.356,0.19999999999999998,0.618,Republican,0.97,0,0.0258,43577,0.15,0.51,0.07,0.04
Virginia,Mathews County,37.4354,-76.3436,0.67,0.31,0.36,0.001,0.001,0.049,0.19,0.76,0.002,0.95,Republican,0.88,0.09,0.021,64237,0.09,0.31,0.2,0.08
Georgia,Catoosa County,34.9036,-85.1382,0.77,0.21,0.56,0.143,0.152,0.114,0.217,0.375,0.295,0.592,Republican,0.92,0.02,0.0255,56235,0.13,0.33,0.15,0.07
Virginia,Lee County,36.7054,-83.1286,0.84,0.15,0.69,0.107,0.135,0.072,0.104,0.582,0.242,0.6859999999999999,Republican,0.94,0.04,0.0389,32888,0.23,0.34,0.08,0.03
Michigan,Iron County,46.2087,-88.5305,0.62,0.37,0.25,0.046,0.068,0.126,0.227,0.533,0.114,0.76,Republican,0.96,0.01,0.0264,41599,0.09,0.42,0.12,0.07
Texas,Hale County,34.0705,-101.8269,0.75,0.24,0.51,0.066,0.058,0.028,0.239,0.609,0.124,0.848,Republican,0.86,0.05,0.028,48384,0.23,0.35,0.12,0.06
Utah,Wasatch County,40.3308,-111.1682,0.61,0.35,0.26,0.039,0.063,0.056,0.254,0.588,0.10200000000000001,0.842,Republican,0.94,0,0.012,85166,0.05,0.22,0.27,0.13
Texas,Jack County,33.2335,-98.1725,0.9,0.09,0.82,0.009,0.018,0.012,0.37,0.592,0.026999999999999996,0.962,Republican,0.93,0.05,0.0181,52045,0.18,0.4,0.09,0.05
Virginia,Carroll County,36.7316,-80.7339,0.81,0.18,0.63,0.064,0.073,0.084,0.285,0.496,0.137,0.7809999999999999,Republican,0.97,0.01,0.0148,44835,0.19,0.36,0.11,0.04
South Carolina,Colleton County,32.8636,-80.6669,0.54,0.45,0.1,0.088,0.077,0.094,0.1,0.641,0.16499999999999998,0.741,Republican,0.57,0.38,0.0467,36324,0.13,0.45,0.1,0.05
Oklahoma,Wagoner County,35.9611,-95.5212,0.74,0.24,0.5,0.032,0.112,0.175,0.306,0.375,0.14400000000000002,0.681,Republican,0.75,0.04,0.0376,62795,0.09,0.33,0.17,0.07
Oklahoma,Grady County,35.0169,-97.8841,0.8,0.18,0.62,0.047,0.098,0.185,0.249,0.422,0.14500000000000002,0.671,Republican,0.86,0.02,0.0206,60875,0.1,0.4,0.15,0.05
Wyoming,Natrona County,42.9621,-106.7985,0.72,0.24,0.48,0.1,0.084,0.094,0.325,0.398,0.184,0.7230000000000001,Republican,0.94,0.01,0.0294,62772,0.08,0.3,0.15,0.08
Minnesota,Lake County,47.6409,-91.4457,0.47,0.51,-0.04,0.087,0.033,0.075,0.341,0.464,0.12,0.805,Democrat,0.97,0.01,0.019,61452,0.05,0.31,0.2,0.09
Virginia,Pulaski County,37.0636,-80.7144,0.7,0.28,0.41,0.083,0.055,0.166,0.173,0.523,0.138,0.696,Republican,0.92,0.04,0.0333,53866,0.13,0.33,0.12,0.08
Idaho,Benewah County,47.2176,-116.6587,0.78,0.2,0.58,0.038,0.059,0.15,0.152,0.601,0.097,0.753,Republican,0.87,0,0.0415,47556,0.12,0.38,0.11,0.05
Virginia,Martinsville city,36.6827,-79.8636,0.36,0.63,-0.27,0.063,0.076,0.134,0.163,0.564,0.139,0.727,Democrat,0.48,0.45,0.033,34371,0.17,0.29,0.14,0.07
West Virginia,Cabell County,38.4203,-82.2417,0.58,0.4,0.18,0.092,0.09,0.154,0.186,0.476,0.182,0.6619999999999999,Republican,0.91,0.05,0.0283,40028,0.12,0.33,0.15,0.11
West Virginia,Hancock County,40.5219,-80.5739,0.71,0.27,0.44,0.072,0.128,0.151,0.19,0.459,0.2,0.649,Republican,0.95,0.02,0.0439,45763,0.1,0.42,0.11,0.06
Georgia,Oglethorpe County,33.8807,-83.0807,0.69,0.3,0.39,0.056,0.082,0.054,0.181,0.627,0.138,0.808,Republican,0.8,0.18,0.0301,47120,0.2,0.39,0.09,0.08
Ohio,Darke County,40.1333,-84.6194,0.81,0.17,0.64,0.216,0.084,0.15,0.28,0.271,0.3,0.551,Republican,0.97,0.01,0.0212,55620,0.09,0.47,0.1,0.06
Delaware,Kent County,39.0862,-75.5684,0.47,0.51,-0.04,0.026,0.006,0.106,0.051,0.811,0.032,0.8620000000000001,Democrat,0.66,0.26,0.0324,60910,0.13,0.33,0.15,0.09
Missouri,Newton County,36.9055,-94.3393,0.78,0.2,0.57,0.156,0.121,0.14,0.211,0.373,0.277,0.584,Republican,0.9,0.01,0.0233,50813,0.13,0.35,0.13,0.07
Virginia,Franklin County,36.992,-79.8811,0.7,0.28,0.42,0.074,0.098,0.069,0.189,0.57,0.172,0.7589999999999999,Republican,0.89,0.08,0.0264,56254,0.12,0.35,0.14,0.08
Kentucky,Carter County,38.3182,-83.0495,0.76,0.23,0.53,0.069,0.102,0.122,0.324,0.383,0.17099999999999999,0.7070000000000001,Republican,0.98,0.01,0.0245,34736,0.21,0.4,0.07,0.05
Pennsylvania,Lackawanna County,41.4368,-75.6092,0.45,0.54,-0.08,0.007,0.006,0.039,0.106,0.843,0.013000000000000001,0.949,Democrat,0.91,0.03,0.0262,52821,0.09,0.37,0.18,0.1
Texas,Nolan County,32.3035,-100.406,0.77,0.22,0.55,0.09,0.072,0.108,0.187,0.544,0.16199999999999998,0.7310000000000001,Republican,0.88,0.06,0.04,45537,0.18,0.35,0.11,0.04
Tennessee,Benton County,36.0698,-88.0683,0.78,0.21,0.57,0.169,0.109,0.206,0.21,0.306,0.278,0.516,Republican,0.95,0.03,0.0323,37512,0.18,0.46,0.08,0.04
Virginia,Orange County,38.2462,-78.0137,0.6,0.39,0.21,0.033,0.132,0.038,0.153,0.643,0.165,0.796,Republican,0.81,0.13,0.0358,71548,0.11,0.35,0.16,0.09
South Dakota,Douglas County,43.3869,-98.3661,0.86,0.13,0.73,0.189,0.108,0.269,0.146,0.289,0.297,0.43499999999999994,Republican,0.95,0,0.0048,58684,0.12,0.35,0.1,0.05
Missouri,Cape Girardeau County,37.384,-89.6845,0.72,0.27,0.45,0.08,0.109,0.137,0.285,0.389,0.189,0.6739999999999999,Republican,0.88,0.07,0.0284,53732,0.09,0.31,0.19,0.12
Indiana,Marshall County,41.3248,-86.2618,0.69,0.29,0.41,0.12,0.103,0.159,0.229,0.389,0.22299999999999998,0.618,Republican,0.94,0.01,0.0303,52658,0.15,0.39,0.12,0.08
Louisiana,Caddo Parish,32.5801,-93.8823,0.46,0.53,-0.07,0.058,0.079,0.158,0.209,0.497,0.137,0.706,Democrat,0.46,0.49,0.0387,41797,0.13,0.34,0.15,0.09
South Carolina,Laurens County,34.4836,-82.0059,0.66,0.33,0.32,0.09,0.102,0.164,0.214,0.43,0.192,0.644,Republican,0.7,0.24,0.0427,43304,0.19,0.34,0.11,0.05
Hawaii,Kauai County,22.0396,-159.5963,0.35,0.63,-0.29,0,0.021,0.046,0.108,0.825,0.021,0.9329999999999999,Democrat,0.32,0,0.025,83554,0.08,0.3,0.2,0.09
Pennsylvania,Forest County,41.513,-79.236,0.71,0.28,0.44,0.016,0.008,0.158,0.196,0.622,0.024,0.8180000000000001,Republican,0.7,0.26,0.0071,39717,0.17,0.57,0.05,0.03
Tennessee,Perry County,35.6426,-87.8589,0.81,0.18,0.63,0.18,0.148,0.137,0.159,0.376,0.32799999999999996,0.535,Republican,0.93,0.03,0.0403,41034,0.25,0.38,0.06,0.05
Pennsylvania,Montgomery County,40.2108,-75.3673,0.36,0.63,-0.26,0.016,0.019,0.044,0.16,0.761,0.035,0.921,Democrat,0.79,0.09,0.0286,91546,0.06,0.24,0.28,0.21
South Dakota,Corson County,45.7086,-101.1969,0.5,0.48,0.02,0.144,0.19,0.134,0.285,0.247,0.33399999999999996,0.532,Republican,0.29,0,0.1451,35759,0.16,0.34,0.15,0.03
Missouri,Phelps County,37.8772,-91.7923,0.69,0.29,0.4,0.139,0.177,0.119,0.244,0.32,0.316,0.5640000000000001,Republican,0.91,0.02,0.0285,44154,0.12,0.3,0.16,0.13
Tennessee,Giles County,35.2021,-87.0348,0.74,0.25,0.49,0.061,0.068,0.192,0.237,0.441,0.129,0.6779999999999999,Republican,0.86,0.1,0.0321,49614,0.14,0.43,0.11,0.05
Texas,Tyler County,30.7712,-94.3766,0.85,0.15,0.7,0.021,0.066,0.054,0.155,0.703,0.08700000000000001,0.858,Republican,0.85,0.11,0.0581,44497,0.18,0.43,0.1,0.04
Nebraska,Dakota County,42.3911,-96.5646,0.58,0.4,0.17,0.113,0.167,0.131,0.163,0.425,0.28,0.588,Republican,0.69,0.05,0.0278,59231,0.23,0.35,0.09,0.04
Nebraska,Dixon County,42.4932,-96.8678,0.75,0.21,0.54,0.163,0.16,0.131,0.162,0.383,0.323,0.545,Republican,0.93,0,0.0167,56905,0.12,0.35,0.15,0.06
Virginia,Botetourt County,37.5571,-79.8123,0.71,0.27,0.45,0.043,0.079,0.106,0.221,0.551,0.122,0.772,Republican,0.94,0.03,0.019,71110,0.07,0.32,0.17,0.11
Missouri,Boone County,38.9906,-92.3097,0.42,0.55,-0.13,0.073,0.075,0.113,0.224,0.515,0.148,0.739,Democrat,0.81,0.09,0.0283,55328,0.05,0.21,0.26,0.2
Louisiana,De Soto Parish,32.0554,-93.7372,0.62,0.37,0.25,0.035,0.075,0.132,0.162,0.596,0.11,0.758,Republican,0.61,0.35,0.0607,46006,0.17,0.43,0.09,0.05
Florida,St. Johns County,29.9016,-81.4407,0.63,0.36,0.27,0.047,0.071,0.097,0.223,0.561,0.118,0.784,Republican,0.88,0.05,0.0277,82252,0.05,0.21,0.28,0.17
Michigan,Baraga County,46.6626,-88.3652,0.62,0.37,0.26,0.012,0.063,0.109,0.257,0.558,0.075,0.8150000000000001,Republican,0.73,0.09,0.0269,46065,0.11,0.41,0.1,0.06
Vermont,Orange County,44.0057,-72.3768,0.36,0.6,-0.24,0.029,0.095,0.073,0.107,0.696,0.124,0.8029999999999999,Democrat,0.97,0.01,0.0249,60925,0.08,0.36,0.16,0.13
Tennessee,Fayette County,35.1971,-89.4144,0.68,0.31,0.38,0.022,0.001,0.089,0.205,0.682,0.023,0.887,Republican,0.7,0.27,0.0358,60711,0.14,0.32,0.15,0.08
Alabama,Escambia County,31.1261,-87.1616,0.68,0.31,0.37,0.114,0.026,0.188,0.285,0.387,0.14,0.6719999999999999,Republican,0.62,0.32,0.053,36275,0.19,0.44,0.08,0.04
Tennessee,Hardin County,35.1987,-88.1845,0.83,0.15,0.67,0.142,0.14,0.107,0.241,0.371,0.28200000000000003,0.612,Republican,0.94,0.04,0.0316,40682,0.18,0.42,0.1,0.05
Idaho,Canyon County,43.6251,-116.7093,0.68,0.29,0.4,0.113,0.095,0.17,0.24,0.381,0.20800000000000002,0.621,Republican,0.83,0,0.0353,52134,0.15,0.32,0.13,0.05
Kentucky,Hart County,37.2999,-85.8847,0.76,0.23,0.53,0.053,0.034,0.118,0.185,0.61,0.087,0.7949999999999999,Republican,0.93,0.04,0.0306,38396,0.24,0.4,0.07,0.05
Alabama,Colbert County,34.7005,-87.8049,0.69,0.3,0.39,0.082,0.096,0.152,0.159,0.51,0.178,0.669,Republican,0.79,0.16,0.0233,48065,0.15,0.38,0.12,0.07
Michigan,Gogebic County,46.4089,-89.6944,0.56,0.43,0.12,0.039,0.064,0.139,0.257,0.501,0.10300000000000001,0.758,Republican,0.91,0.04,0.026,38839,0.06,0.37,0.13,0.07
Kentucky,Woodford County,38.0424,-84.7436,0.55,0.43,0.12,0.042,0.017,0.049,0.193,0.698,0.059000000000000004,0.891,Republican,0.92,0.05,0.0241,63820,0.09,0.3,0.2,0.14
Kentucky,Magoffin County,37.7065,-83.0649,0.77,0.22,0.54,0.107,0.078,0.111,0.164,0.54,0.185,0.7040000000000001,Republican,1,0,0.0628,28147,0.3,0.36,0.05,0.05
Pennsylvania,Butler County,40.9118,-79.9133,0.66,0.33,0.33,0.035,0.062,0.062,0.194,0.647,0.097,0.841,Republican,0.96,0.01,0.0247,70668,0.05,0.33,0.23,0.13
Ohio,Harrison County,40.2938,-81.0911,0.76,0.23,0.53,0.107,0.141,0.153,0.233,0.365,0.248,0.598,Republican,0.95,0.03,0.0274,49689,0.13,0.48,0.08,0.04
Wisconsin,Barron County,45.4237,-91.8483,0.62,0.36,0.26,0.138,0.163,0.07,0.259,0.37,0.30100000000000005,0.629,Republican,0.95,0.02,0.0164,52703,0.1,0.36,0.14,0.07
South Dakota,Gregory County,43.1924,-99.1856,0.78,0.2,0.58,0.113,0.118,0.206,0.264,0.299,0.23099999999999998,0.563,Republican,0.88,0,0.0055,43438,0.11,0.36,0.14,0.06
Indiana,Tippecanoe County,40.3886,-86.8941,0.48,0.49,-0.01,0.093,0.083,0.102,0.204,0.518,0.176,0.722,Democrat,0.81,0.05,0.0264,53130,0.08,0.25,0.21,0.17
Pennsylvania,Perry County,40.3984,-77.2623,0.74,0.24,0.5,0.035,0.017,0.1,0.199,0.649,0.052000000000000005,0.8480000000000001,Republican,0.97,0.01,0.0215,63718,0.13,0.47,0.11,0.05
New York,Hamilton County,43.6611,-74.4974,0.64,0.34,0.3,0.042,0.024,0.053,0.229,0.653,0.066,0.882,Republican,0.97,0.01,0.0166,58675,0.23,0.27,0.09,0.08
Oklahoma,Washita County,35.2904,-98.9922,0.86,0.13,0.73,0.024,0.256,0.243,0.164,0.313,0.28,0.477,Republican,0.89,0.01,0.0294,53274,0.1,0.41,0.14,0.07
Texas,Madison County,30.9655,-95.9284,0.79,0.21,0.58,0.065,0.032,0.097,0.337,0.469,0.097,0.806,Republican,0.73,0.16,0.0148,52664,0.19,0.38,0.1,0.04
Ohio,Logan County,40.3885,-83.7658,0.77,0.22,0.55,0.136,0.117,0.314,0.248,0.186,0.253,0.434,Republican,0.95,0.02,0.0282,56754,0.07,0.48,0.11,0.05
Vermont,Windsor County,43.58,-72.5862,0.29,0.68,-0.39,0.061,0.055,0.03,0.227,0.627,0.11599999999999999,0.854,Democrat,0.96,0.01,0.0237,60987,0.07,0.29,0.21,0.17
Kentucky,Lincoln County,37.4554,-84.6608,0.78,0.21,0.57,0.172,0.054,0.093,0.172,0.509,0.22599999999999998,0.681,Republican,0.95,0.02,0.0304,42919,0.2,0.43,0.08,0.05
Kentucky,Trigg County,36.8064,-87.8734,0.74,0.24,0.5,0.066,0.053,0.131,0.152,0.597,0.119,0.749,Republican,0.9,0.07,0.0494,50536,0.12,0.33,0.11,0.06
Illinois,Hancock County,40.4037,-91.1647,0.74,0.25,0.49,0.147,0.154,0.125,0.163,0.411,0.301,0.574,Republican,0.97,0.01,0.0331,52561,0.07,0.37,0.14,0.07
Florida,Palm Beach County,26.6476,-80.4655,0.43,0.56,-0.13,0.03,0.02,0.05,0.116,0.784,0.05,0.9,Democrat,0.74,0.19,0.0351,63299,0.12,0.24,0.23,0.14
Hawaii,Maui County,20.8596,-156.5648,0.31,0.67,-0.35,0.034,0.016,0.025,0.122,0.803,0.05,0.925,Democrat,0.35,0.01,0.0266,80948,0.08,0.31,0.18,0.09
Georgia,Peach County,32.5688,-83.8269,0.52,0.47,0.05,0.027,0.074,0.172,0.16,0.567,0.10099999999999999,0.727,Republican,0.49,0.45,0.0515,46636,0.17,0.3,0.11,0.1
West Virginia,Jefferson County,39.3076,-77.8628,0.54,0.44,0.1,0.041,0.038,0.2,0.169,0.552,0.079,0.7210000000000001,Republican,0.87,0.06,0.0391,80430,0.1,0.31,0.19,0.13
Florida,Hardee County,27.4927,-81.81,0.72,0.27,0.45,0.114,0.041,0.179,0.186,0.48,0.155,0.6659999999999999,Republican,0.8,0.08,0.0303,38682,0.23,0.49,0.07,0.03
Virginia,Charles City County,37.3567,-77.0622,0.4,0.59,-0.19,0.017,0.02,0.103,0.177,0.683,0.037000000000000005,0.8600000000000001,Democrat,0.44,0.45,0.017,57198,0.2,0.38,0.1,0.05
West Virginia,Tucker County,39.1136,-79.565,0.74,0.24,0.5,0.108,0.087,0.048,0.292,0.465,0.195,0.757,Republican,0.97,0,0.0333,49118,0.12,0.47,0.12,0.08
Indiana,Lake County,41.4171,-87.3822,0.42,0.57,-0.15,0.043,0.057,0.088,0.219,0.592,0.1,0.8109999999999999,Democrat,0.62,0.24,0.0426,56128,0.11,0.35,0.15,0.08
West Virginia,Kanawha County,38.3366,-81.5281,0.56,0.42,0.15,0.145,0.039,0.064,0.147,0.605,0.184,0.752,Republican,0.88,0.07,0.0327,46639,0.11,0.37,0.15,0.11
Minnesota,Kanabec County,45.9452,-93.2934,0.68,0.3,0.38,0.223,0.148,0.137,0.146,0.346,0.371,0.492,Republican,0.96,0,0.0201,57163,0.1,0.39,0.09,0.05
Oklahoma,Jackson County,34.588,-99.4148,0.78,0.2,0.58,0.021,0.127,0.148,0.291,0.411,0.148,0.702,Republican,0.72,0.07,0.0293,49703,0.15,0.27,0.15,0.09
Wyoming,Big Horn County,44.5267,-107.9952,0.84,0.14,0.7,0.182,0.187,0.12,0.257,0.253,0.369,0.51,Republican,0.93,0,0.0439,52804,0.1,0.29,0.14,0.05
North Carolina,Gates County,36.4449,-76.7005,0.56,0.43,0.14,0.008,0.022,0.19,0.21,0.57,0.03,0.7799999999999999,Republican,0.63,0.33,0.0374,50750,0.11,0.38,0.08,0.06
Washington,Spokane County,47.6207,-117.404,0.5,0.46,0.04,0.033,0.057,0.08,0.151,0.679,0.09,0.8300000000000001,Republican,0.88,0.02,0.0343,56904,0.06,0.23,0.19,0.11
Georgia,Monroe County,33.0139,-83.9187,0.71,0.28,0.43,0.072,0.035,0.184,0.253,0.455,0.107,0.708,Republican,0.74,0.23,0.038,54754,0.14,0.33,0.15,0.12
West Virginia,Boone County,38.023,-81.7112,0.76,0.23,0.53,0.097,0.138,0.093,0.197,0.475,0.23500000000000001,0.6719999999999999,Republican,0.98,0.01,0.0426,40739,0.2,0.5,0.06,0.04
Tennessee,Unicoi County,36.1107,-82.4323,0.79,0.19,0.6,0.049,0.041,0.108,0.306,0.497,0.09,0.8029999999999999,Republican,0.96,0,0.0297,41890,0.15,0.39,0.1,0.05
North Carolina,Burke County,35.7496,-81.7048,0.7,0.29,0.4,0.091,0.056,0.124,0.189,0.54,0.147,0.7290000000000001,Republican,0.84,0.06,0.0416,44557,0.18,0.31,0.11,0.06
Georgia,Laurens County,32.4637,-82.9222,0.64,0.36,0.28,0.122,0.056,0.141,0.291,0.391,0.178,0.6819999999999999,Republican,0.59,0.37,0.0268,39120,0.14,0.43,0.09,0.07
Wisconsin,Kenosha County,42.5769,-88.0424,0.51,0.48,0.03,0.077,0.083,0.097,0.155,0.589,0.16,0.744,Republican,0.85,0.08,0.0427,63733,0.1,0.3,0.17,0.09
Minnesota,Marshall County,48.3581,-96.3685,0.73,0.25,0.47,0.078,0.152,0.221,0.234,0.315,0.22999999999999998,0.549,Republican,0.97,0,0.0145,60118,0.1,0.37,0.14,0.05
Georgia,Twiggs County,32.6672,-83.4271,0.53,0.46,0.07,0.04,0.077,0.188,0.148,0.547,0.11699999999999999,0.6950000000000001,Republican,0.56,0.43,0.0274,34879,0.26,0.38,0.06,0.06
Kansas,Kearny County,38.0003,-101.3199,0.8,0.18,0.62,0.155,0.098,0.172,0.229,0.346,0.253,0.575,Republican,0.95,0.03,0.0128,52599,0.24,0.32,0.08,0.07
Alabama,Fayette County,33.7212,-87.7389,0.83,0.16,0.67,0.138,0.048,0.151,0.233,0.429,0.186,0.662,Republican,0.85,0.12,0.0319,39856,0.17,0.41,0.09,0.03
Montana,Treasure County,46.2115,-107.2716,0.81,0.17,0.64,0.122,0.188,0.16,0.259,0.27,0.31,0.529,Republican,0.95,0,0,43047,0.1,0.32,0.21,0.04
Montana,Phillips County,48.2592,-107.9132,0.81,0.17,0.64,0.229,0.114,0.214,0.296,0.147,0.343,0.44299999999999995,Republican,0.84,0,0.0423,46212,0.09,0.39,0.12,0.05
Florida,Hendry County,26.5535,-81.1659,0.61,0.38,0.23,0.046,0.042,0.112,0.15,0.65,0.088,0.8,Republican,0.79,0.12,0.0456,40820,0.34,0.34,0.05,0.03
Tennessee,Jackson County,36.3592,-85.6732,0.77,0.21,0.56,0.138,0.128,0.249,0.093,0.392,0.266,0.485,Republican,0.96,0,0.0337,35207,0.22,0.45,0.08,0.03
Virginia,King William County,37.7066,-77.0886,0.68,0.3,0.38,0.012,0.072,0.201,0.169,0.546,0.08399999999999999,0.7150000000000001,Republican,0.79,0.16,0.0261,66987,0.08,0.34,0.15,0.06
Louisiana,St. Landry Parish,30.5988,-92.0059,0.56,0.42,0.14,0.064,0.105,0.117,0.199,0.515,0.16899999999999998,0.714,Republican,0.56,0.42,0.0309,36403,0.23,0.41,0.1,0.05
Iowa,Fayette County,42.8626,-91.8444,0.6,0.38,0.23,0.054,0.075,0.128,0.349,0.394,0.129,0.743,Republican,0.95,0.02,0.0192,51128,0.08,0.4,0.13,0.06
Oregon,Benton County,44.4918,-123.4293,0.28,0.68,-0.4,0.007,0.007,0.059,0.156,0.77,0.014,0.926,Democrat,0.85,0.01,0.0324,62077,0.04,0.13,0.29,0.25
Minnesota,Mower County,43.6714,-92.7525,0.52,0.46,0.06,0.071,0.107,0.113,0.262,0.448,0.178,0.71,Republican,0.87,0.04,0.0238,54295,0.12,0.32,0.15,0.07
Nebraska,Dodge County,41.5779,-96.654,0.65,0.33,0.32,0.14,0.036,0.136,0.374,0.314,0.17600000000000002,0.688,Republican,0.95,0.01,0.03,54085,0.11,0.35,0.12,0.07
Washington,Chelan County,47.8692,-120.619,0.53,0.45,0.08,0.062,0.048,0.029,0.297,0.564,0.11,0.861,Republican,0.8,0.01,0.0243,58795,0.17,0.26,0.16,0.1
Texas,Ellis County,32.3484,-96.7945,0.66,0.32,0.34,0.027,0.017,0.044,0.19,0.722,0.044,0.9119999999999999,Republican,0.82,0.1,0.0227,76871,0.14,0.28,0.17,0.08
Illinois,De Witt County,40.1746,-88.9041,0.7,0.27,0.43,0.035,0.106,0.073,0.28,0.507,0.14100000000000001,0.787,Republican,0.96,0.01,0.0307,55587,0.08,0.38,0.16,0.05
Minnesota,Jackson County,43.6741,-95.154,0.68,0.3,0.38,0.325,0.024,0.14,0.171,0.34,0.34900000000000003,0.511,Republican,0.94,0,0.0181,58727,0.07,0.33,0.18,0.04
Virginia,Cumberland County,37.5121,-78.2449,0.57,0.42,0.15,0.012,0.055,0.098,0.137,0.699,0.067,0.836,Republican,0.63,0.3,0.029,47469,0.16,0.38,0.07,0.08
Montana,Granite County,46.4045,-113.4403,0.68,0.3,0.37,0.116,0.17,0.109,0.183,0.422,0.28600000000000003,0.605,Republican,0.96,0,0.015,49881,0.08,0.31,0.2,0.09
Nebraska,Wayne County,42.2093,-97.1193,0.72,0.24,0.48,0.245,0.12,0.155,0.141,0.34,0.365,0.481,Republican,0.95,0.01,0.0181,56456,0.04,0.28,0.22,0.1
Indiana,Delaware County,40.2275,-85.3969,0.56,0.42,0.13,0.095,0.109,0.124,0.197,0.475,0.20400000000000001,0.6719999999999999,Republican,0.88,0.07,0.0386,43512,0.1,0.35,0.13,0.1
Kentucky,Pulaski County,37.1039,-84.5773,0.81,0.18,0.63,0.13,0.123,0.096,0.164,0.487,0.253,0.651,Republican,0.96,0.01,0.0384,39998,0.17,0.36,0.09,0.07
Idaho,Twin Falls County,42.356,-114.6672,0.71,0.26,0.45,0.166,0.222,0.101,0.177,0.335,0.388,0.512,Republican,0.92,0.01,0.0215,52919,0.13,0.27,0.13,0.08
Nebraska,Douglas County,41.2953,-96.1543,0.43,0.54,-0.11,0.091,0.069,0.095,0.263,0.482,0.16,0.745,Democrat,0.79,0.11,0.028,64629,0.09,0.21,0.26,0.14
Kansas,Stevens County,37.1923,-101.3121,0.87,0.12,0.75,0.122,0.132,0.112,0.225,0.408,0.254,0.633,Republican,0.86,0.01,0.0364,57806,0.22,0.26,0.09,0.05
Virginia,Lancaster County,37.7345,-76.4632,0.52,0.47,0.05,0.001,0.022,0.121,0.178,0.678,0.023,0.8560000000000001,Republican,0.68,0.31,0.0195,53711,0.1,0.31,0.16,0.15
Nebraska,Loup County,41.9139,-99.4544,0.81,0.17,0.65,0.193,0.084,0.129,0.276,0.318,0.277,0.5940000000000001,Republican,1,0,0.0038,51000,0.02,0.29,0.2,0.05
Tennessee,Trousdale County,36.3921,-86.1568,0.73,0.25,0.48,0.112,0.063,0.241,0.133,0.452,0.175,0.585,Republican,0.85,0.1,0.0361,56321,0.16,0.38,0.09,0.04
Missouri,Scotland County,40.4526,-92.1471,0.79,0.2,0.59,0.073,0.112,0.209,0.246,0.361,0.185,0.607,Republican,0.99,0,0.0207,50085,0.2,0.42,0.1,0.04
Georgia,Walker County,34.7356,-85.301,0.79,0.2,0.59,0.144,0.164,0.117,0.21,0.366,0.308,0.576,Republican,0.92,0.04,0.0335,46157,0.18,0.35,0.11,0.06
South Dakota,Pennington County,44.0037,-102.8238,0.61,0.36,0.25,0.127,0.078,0.159,0.222,0.414,0.20500000000000002,0.636,Republican,0.83,0.01,0.0293,57039,0.06,0.28,0.21,0.11
Michigan,Otsego County,45.0214,-84.599,0.66,0.32,0.34,0.06,0.068,0.097,0.172,0.602,0.128,0.774,Republican,0.96,0.01,0.0331,54332,0.08,0.33,0.15,0.08
California,Solano County,38.27,-121.9329,0.34,0.64,-0.3,0.043,0.046,0.035,0.148,0.728,0.089,0.876,Democrat,0.53,0.14,0.0373,81472,0.12,0.24,0.19,0.08
Iowa,Louisa County,41.2185,-91.2596,0.66,0.32,0.33,0.097,0.058,0.15,0.214,0.482,0.155,0.696,Republican,0.9,0.01,0.0314,56673,0.16,0.38,0.11,0.04
Missouri,DeKalb County,39.8932,-94.4047,0.79,0.19,0.6,0.144,0.133,0.159,0.241,0.323,0.277,0.5640000000000001,Republican,0.86,0.09,0.0092,55918,0.13,0.47,0.1,0.04
Texas,Midland County,31.8691,-102.0316,0.78,0.21,0.57,0.083,0.044,0.066,0.219,0.588,0.127,0.8069999999999999,Republican,0.82,0.07,0.0231,79421,0.15,0.26,0.2,0.08
South Dakota,Codington County,44.9779,-97.1886,0.68,0.29,0.39,0.185,0.144,0.25,0.117,0.305,0.32899999999999996,0.422,Republican,0.94,0.01,0.0151,56376,0.08,0.36,0.16,0.05
Ohio,Erie County,41.3632,-82.6192,0.55,0.43,0.12,0.078,0.022,0.091,0.179,0.63,0.1,0.8089999999999999,Republican,0.85,0.09,0.0306,54226,0.08,0.37,0.15,0.09
West Virginia,Roane County,38.714,-81.3483,0.73,0.25,0.48,0.082,0.024,0.191,0.21,0.493,0.10600000000000001,0.703,Republican,0.98,0,0.0375,37373,0.21,0.44,0.08,0.05
Wisconsin,Sawyer County,45.88,-91.1445,0.56,0.43,0.13,0.058,0.126,0.133,0.256,0.427,0.184,0.683,Republican,0.77,0,0.0329,47714,0.08,0.34,0.15,0.09
Colorado,Cheyenne County,38.828,-102.6035,0.87,0.12,0.76,0.016,0.187,0.106,0.398,0.292,0.203,0.69,Republican,0.93,0,0.0461,53977,0.08,0.37,0.17,0.02
Kansas,Morris County,38.6874,-96.6499,0.73,0.25,0.48,0.11,0.094,0.148,0.244,0.404,0.20400000000000001,0.648,Republican,0.96,0,0.0149,55658,0.09,0.36,0.15,0.06
New York,Chautauqua County,42.2282,-79.3663,0.59,0.39,0.2,0.029,0.024,0.038,0.206,0.703,0.053000000000000005,0.9089999999999999,Republican,0.92,0.03,0.0343,46820,0.11,0.35,0.13,0.1
California,Alpine County,38.5972,-119.8207,0.33,0.64,-0.31,0.025,0.085,0.088,0.19,0.612,0.11000000000000001,0.802,Democrat,0.58,0.01,0.0574,63750,0.09,0.28,0.21,0.13
Georgia,Cook County,31.154,-83.4305,0.7,0.29,0.4,0.098,0.134,0.123,0.203,0.441,0.232,0.644,Republican,0.69,0.27,0.032,41854,0.21,0.36,0.08,0.05
Mississippi,Simpson County,31.9132,-89.9195,0.65,0.34,0.3,0.081,0.124,0.149,0.154,0.491,0.20500000000000002,0.645,Republican,0.62,0.37,0.0411,43850,0.2,0.3,0.12,0.04
Texas,Montgomery County,30.3002,-95.503,0.71,0.27,0.44,0.031,0.073,0.061,0.145,0.69,0.104,0.835,Republican,0.86,0.05,0.0276,80902,0.12,0.23,0.23,0.12
Virginia,Brunswick County,36.7648,-77.859,0.42,0.57,-0.15,0.006,0.003,0.158,0.145,0.688,0.009000000000000001,0.833,Democrat,0.42,0.54,0.0453,44434,0.21,0.36,0.08,0.05
South Carolina,Spartanburg County,34.9312,-81.9908,0.63,0.36,0.27,0.06,0.091,0.126,0.227,0.496,0.151,0.723,Republican,0.73,0.2,0.0341,52332,0.14,0.29,0.16,0.09
Illinois,Marshall County,41.0332,-89.3448,0.66,0.32,0.35,0.048,0.083,0.133,0.198,0.538,0.131,0.736,Republican,0.97,0,0.0325,58465,0.07,0.39,0.15,0.04
Indiana,Clark County,38.4772,-85.7073,0.58,0.4,0.18,0.068,0.06,0.141,0.228,0.501,0.128,0.729,Republican,0.88,0.07,0.0321,55630,0.11,0.35,0.14,0.07
Ohio,Brown County,38.934,-83.8674,0.78,0.21,0.57,0.177,0.177,0.101,0.128,0.417,0.354,0.5449999999999999,Republican,0.97,0.01,0.029,54575,0.12,0.46,0.1,0.05
North Carolina,Perquimans County,36.2058,-76.4411,0.66,0.33,0.32,0.036,0.014,0.154,0.299,0.498,0.049999999999999996,0.7969999999999999,Republican,0.74,0.24,0.0356,47162,0.13,0.29,0.13,0.07
Illinois,Iroquois County,40.7473,-87.8243,0.77,0.21,0.57,0.097,0.168,0.069,0.242,0.424,0.265,0.6659999999999999,Republican,0.93,0.01,0.0299,52700,0.11,0.4,0.11,0.05
Texas,Hunt County,33.1236,-96.0855,0.76,0.23,0.53,0.069,0.072,0.082,0.285,0.492,0.14100000000000001,0.7769999999999999,Republican,0.8,0.08,0.0298,54959,0.15,0.34,0.13,0.07
Iowa,Lee County,40.642,-91.4793,0.58,0.39,0.19,0.17,0.146,0.131,0.161,0.392,0.316,0.553,Republican,0.94,0.03,0.0421,49564,0.07,0.41,0.12,0.04
Texas,Ward County,31.5095,-103.1025,0.8,0.19,0.61,0.08,0.052,0.094,0.197,0.577,0.132,0.774,Republican,0.86,0.04,0.0358,62986,0.21,0.36,0.09,0.03
California,Tulare County,36.2201,-118.8005,0.53,0.45,0.08,0.025,0.039,0.115,0.136,0.685,0.064,0.8210000000000001,Republican,0.74,0.02,0.0563,49687,0.29,0.26,0.1,0.05
New Mexico,Los Alamos County,35.8694,-106.3074,0.35,0.61,-0.27,0.001,0.041,0.076,0.173,0.709,0.042,0.8819999999999999,Democrat,0.86,0.01,0.0233,121324,0.02,0.09,0.27,0.41
Minnesota,Red Lake County,47.8717,-96.0953,0.66,0.31,0.35,0.095,0.241,0.194,0.184,0.286,0.33599999999999997,0.47,Republican,0.95,0,0.0188,58576,0.07,0.37,0.13,0.03
Missouri,Camden County,38.027,-92.766,0.76,0.23,0.53,0.266,0.093,0.147,0.124,0.371,0.359,0.495,Republican,0.96,0.01,0.0243,53478,0.1,0.38,0.13,0.08
New York,Onondaga County,43.0058,-76.1946,0.39,0.59,-0.21,0.019,0.008,0.054,0.163,0.756,0.027,0.919,Democrat,0.8,0.11,0.033,61359,0.09,0.25,0.2,0.16
Colorado,La Plata County,37.2866,-107.8433,0.4,0.58,-0.18,0.043,0.02,0.122,0.274,0.541,0.063,0.8150000000000001,Democrat,0.88,0,0.027,68685,0.04,0.2,0.28,0.17
Mississippi,Adams County,31.4829,-91.3535,0.41,0.58,-0.16,0.113,0.112,0.131,0.084,0.56,0.225,0.644,Democrat,0.41,0.56,0.0461,29936,0.22,0.33,0.1,0.07
North Carolina,Hertford County,36.3591,-76.982,0.33,0.67,-0.34,0.02,0.007,0.06,0.217,0.696,0.027,0.9129999999999999,Democrat,0.35,0.59,0.0485,41028,0.19,0.33,0.09,0.06
Nebraska,Kearney County,40.5067,-98.948,0.78,0.19,0.59,0.062,0.127,0.094,0.318,0.399,0.189,0.7170000000000001,Republican,0.97,0,0.0195,60266,0.04,0.29,0.2,0.07
Washington,Lincoln County,47.5763,-118.4187,0.73,0.24,0.49,0.017,0.086,0.023,0.108,0.765,0.103,0.873,Republican,0.93,0.01,0.0184,54631,0.07,0.29,0.17,0.08
North Carolina,Hoke County,35.0175,-79.2373,0.44,0.55,-0.11,0.009,0.047,0.092,0.236,0.616,0.056,0.852,Democrat,0.44,0.34,0.0515,48072,0.13,0.29,0.12,0.06
Indiana,Switzerland County,38.8262,-85.037,0.75,0.23,0.52,0.089,0.125,0.209,0.234,0.344,0.214,0.578,Republican,0.96,0.01,0.0352,49383,0.16,0.46,0.08,0.03
Texas,Harris County,29.8577,-95.3936,0.43,0.56,-0.13,0.019,0.024,0.069,0.152,0.736,0.043,0.888,Democrat,0.63,0.19,0.0393,61705,0.19,0.23,0.2,0.11
North Carolina,Alleghany County,36.4913,-81.1279,0.75,0.24,0.5,0.153,0.067,0.067,0.21,0.504,0.22,0.714,Republican,0.95,0.02,0.0203,37830,0.23,0.29,0.1,0.07
North Dakota,Sheridan County,47.5755,-100.3456,0.85,0.13,0.72,0.203,0.186,0.091,0.285,0.235,0.389,0.52,Republican,0.99,0,0.0108,51055,0.12,0.37,0.13,0.01
Kentucky,Menifee County,37.9414,-83.5989,0.75,0.24,0.5,0.161,0.088,0.067,0.215,0.468,0.249,0.683,Republican,0.98,0,0.0156,39325,0.23,0.45,0.08,0.03
New Hampshire,Merrimack County,43.2975,-71.6802,0.44,0.54,-0.1,0.085,0.067,0.075,0.158,0.615,0.15200000000000002,0.773,Democrat,0.94,0.01,0.0237,75737,0.07,0.28,0.2,0.15
Georgia,Lowndes County,30.8338,-83.2677,0.55,0.43,0.12,0.108,0.101,0.149,0.208,0.435,0.20900000000000002,0.643,Republican,0.57,0.36,0.0369,42441,0.13,0.31,0.15,0.1
Kentucky,Rowan County,38.1963,-83.4211,0.6,0.39,0.21,0.159,0.097,0.047,0.231,0.467,0.256,0.6980000000000001,Republican,0.96,0.02,0.0263,38230,0.16,0.33,0.12,0.13
Ohio,Champaign County,40.1377,-83.7695,0.73,0.25,0.48,0.084,0.051,0.274,0.269,0.321,0.135,0.5900000000000001,Republican,0.95,0.02,0.0309,60112,0.09,0.46,0.11,0.06
Texas,Terry County,33.1738,-102.3352,0.78,0.21,0.57,0.034,0.066,0.061,0.226,0.613,0.1,0.839,Republican,0.91,0.05,0.052,44627,0.32,0.32,0.08,0.03
Michigan,Gladwin County,43.9907,-84.3883,0.68,0.31,0.37,0.025,0.024,0.109,0.338,0.503,0.049,0.841,Republican,0.97,0,0.0265,44619,0.13,0.39,0.08,0.05
Iowa,Tama County,42.0798,-92.5326,0.59,0.4,0.19,0.066,0.053,0.209,0.181,0.491,0.119,0.6719999999999999,Republican,0.88,0.01,0.0221,56037,0.09,0.4,0.12,0.04
South Dakota,Turner County,43.3109,-97.1487,0.72,0.25,0.47,0.084,0.176,0.115,0.251,0.375,0.26,0.626,Republican,0.98,0,0.0139,59242,0.08,0.34,0.17,0.07
Oregon,Lincoln County,44.642,-123.8682,0.41,0.57,-0.16,0.001,0.012,0.047,0.131,0.81,0.013000000000000001,0.9410000000000001,Democrat,0.88,0.01,0.0301,47882,0.09,0.27,0.15,0.1
Kansas,Geary County,39.0024,-96.7525,0.56,0.41,0.15,0.05,0.068,0.113,0.27,0.499,0.11800000000000001,0.769,Republican,0.68,0.19,0.0234,53133,0.06,0.25,0.15,0.08
Tennessee,Roane County,35.8479,-84.5232,0.74,0.23,0.51,0.074,0.142,0.105,0.274,0.405,0.21599999999999997,0.679,Republican,0.94,0.02,0.0326,53367,0.11,0.36,0.12,0.08
Georgia,Jackson County,34.1339,-83.5664,0.78,0.2,0.58,0.125,0.085,0.117,0.24,0.434,0.21000000000000002,0.6739999999999999,Republican,0.86,0.07,0.0254,65385,0.16,0.32,0.15,0.08
North Dakota,Griggs County,47.4573,-98.237,0.73,0.25,0.48,0.162,0.054,0.197,0.217,0.37,0.216,0.587,Republican,0.95,0,0.0113,53565,0.11,0.33,0.2,0.06
Tennessee,Marion County,35.1293,-85.622,0.75,0.24,0.51,0.115,0.122,0.135,0.247,0.381,0.237,0.628,Republican,0.93,0.03,0.0211,49432,0.18,0.39,0.09,0.04
Oklahoma,Le Flore County,34.9003,-94.7034,0.81,0.18,0.63,0.142,0.152,0.156,0.196,0.354,0.294,0.55,Republican,0.76,0.02,0.029,40677,0.16,0.41,0.09,0.05
New Jersey,Camden County,39.8035,-74.9597,0.32,0.66,-0.33,0.028,0.005,0.027,0.137,0.802,0.033,0.9390000000000001,Democrat,0.64,0.19,0.0439,70451,0.11,0.3,0.2,0.12
South Carolina,Florence County,34.0245,-79.703,0.51,0.48,0.02,0.114,0.08,0.133,0.109,0.564,0.194,0.6729999999999999,Republican,0.54,0.43,0.0384,47058,0.15,0.33,0.15,0.09
South Carolina,Charleston County,32.8346,-79.9531,0.43,0.56,-0.13,0.036,0.059,0.062,0.186,0.657,0.095,0.843,Democrat,0.68,0.27,0.0237,64022,0.08,0.23,0.28,0.16
Washington,Pend Oreille County,48.5323,-117.274,0.67,0.3,0.37,0.027,0.122,0.052,0.212,0.587,0.149,0.7989999999999999,Republican,0.9,0,0.0335,50591,0.09,0.31,0.14,0.07
Nebraska,Cedar County,42.5993,-97.2524,0.83,0.14,0.69,0.207,0.163,0.161,0.177,0.293,0.37,0.47,Republican,0.97,0,0.0074,61869,0.08,0.35,0.15,0.06
Ohio,Summit County,41.126,-81.5322,0.45,0.54,-0.1,0.048,0.056,0.125,0.207,0.565,0.10400000000000001,0.7719999999999999,Democrat,0.79,0.15,0.0346,57181,0.08,0.3,0.21,0.12
Kansas,Sumner County,37.2373,-97.4765,0.74,0.24,0.51,0.104,0.039,0.115,0.298,0.444,0.143,0.742,Republican,0.94,0.01,0.0222,55000,0.08,0.35,0.17,0.06
Texas,Dallam County,36.2779,-102.6022,0.86,0.12,0.74,0.119,0.074,0.123,0.289,0.396,0.193,0.685,Republican,0.9,0.01,0.0138,58811,0.3,0.28,0.12,0.04
Iowa,Buchanan County,42.4708,-91.8379,0.6,0.39,0.21,0.021,0.124,0.087,0.394,0.373,0.145,0.767,Republican,0.97,0,0.0149,64837,0.06,0.39,0.15,0.06
Wisconsin,Waushara County,44.1131,-89.2429,0.66,0.32,0.34,0.109,0.147,0.202,0.186,0.356,0.256,0.542,Republican,0.93,0.01,0.0237,52810,0.13,0.42,0.1,0.06
Texas,Trinity County,31.0888,-95.1355,0.8,0.19,0.61,0.052,0.077,0.065,0.181,0.625,0.129,0.806,Republican,0.86,0.1,0.0331,41357,0.17,0.36,0.09,0.03
Georgia,White County,34.6464,-83.7471,0.82,0.16,0.66,0.057,0.064,0.099,0.347,0.433,0.121,0.78,Republican,0.94,0.01,0.0182,52493,0.15,0.31,0.13,0.1
Georgia,Morgan County,33.5909,-83.4923,0.7,0.29,0.42,0.061,0.064,0.093,0.168,0.614,0.125,0.782,Republican,0.74,0.23,0.0231,66178,0.12,0.36,0.12,0.09
Colorado,Moffat County,40.6184,-108.2074,0.81,0.17,0.64,0.041,0.142,0.162,0.284,0.371,0.183,0.655,Republican,0.94,0.01,0.0278,57229,0.11,0.39,0.11,0.06
Texas,Shackelford County,32.7359,-99.3541,0.91,0.08,0.83,0.061,0.099,0.14,0.183,0.518,0.16,0.7010000000000001,Republican,0.96,0,0.0321,46935,0.14,0.22,0.22,0.08
Alabama,Morgan County,34.4535,-86.8529,0.74,0.25,0.49,0.078,0.077,0.082,0.304,0.459,0.155,0.763,Republican,0.8,0.13,0.0292,52156,0.16,0.3,0.15,0.07
Texas,Sherman County,36.2777,-101.8934,0.89,0.09,0.8,0.125,0.073,0.129,0.267,0.406,0.198,0.673,Republican,0.88,0.01,0.0057,51926,0.21,0.31,0.12,0.03
North Dakota,Golden Valley County,46.9402,-103.8466,0.85,0.13,0.72,0.187,0.206,0.149,0.256,0.203,0.393,0.459,Republican,0.93,0,0.0199,58690,0.07,0.25,0.23,0.04
Ohio,Morrow County,40.5241,-82.7941,0.76,0.22,0.54,0.059,0.094,0.075,0.31,0.462,0.153,0.772,Republican,0.96,0.01,0.0205,59452,0.12,0.44,0.1,0.04
Mississippi,Tunica County,34.652,-90.3755,0.26,0.72,-0.46,0.131,0.036,0.089,0.176,0.568,0.167,0.744,Democrat,0.19,0.78,0.0473,39370,0.16,0.33,0.11,0.06
South Dakota,Oglala Lakota County,43.3355,-102.5516,0.09,0.88,-0.79,0.15,0.075,0.139,0.281,0.355,0.22499999999999998,0.636,Democrat,0.05,0,0.0802,31997,0.26,0.28,0.07,0.03
Georgia,Bleckley County,32.4344,-83.3279,0.76,0.23,0.53,0.089,0.031,0.117,0.256,0.508,0.12,0.764,Republican,0.7,0.28,0.0287,48174,0.11,0.41,0.09,0.09
Louisiana,Sabine Parish,31.564,-93.5546,0.83,0.16,0.66,0.098,0.08,0.113,0.145,0.564,0.178,0.709,Republican,0.69,0.16,0.0455,40336,0.14,0.47,0.09,0.05
Georgia,Butts County,33.2879,-83.9572,0.71,0.28,0.44,0.125,0.037,0.144,0.163,0.53,0.162,0.6930000000000001,Republican,0.68,0.29,0.0245,43471,0.19,0.45,0.09,0.04
Connecticut,Middlesex County,41.4632,-72.5351,0.41,0.57,-0.16,0.003,0.007,0.055,0.128,0.807,0.01,0.935,Democrat,0.88,0.06,0.0312,85898,0.06,0.26,0.24,0.19
Minnesota,Polk County,47.7739,-96.4019,0.63,0.35,0.28,0.104,0.208,0.197,0.196,0.295,0.312,0.491,Republican,0.92,0.02,0.0222,59343,0.08,0.31,0.18,0.07
Illinois,Ford County,40.5972,-88.2233,0.72,0.25,0.47,0.011,0.082,0.167,0.172,0.567,0.093,0.7389999999999999,Republican,0.95,0.01,0.028,52092,0.1,0.36,0.14,0.07
Alabama,Henry County,31.5147,-85.2414,0.71,0.28,0.43,0.066,0.068,0.17,0.258,0.438,0.134,0.696,Republican,0.71,0.27,0.0308,50017,0.21,0.33,0.1,0.07
West Virginia,Pendleton County,38.6807,-79.3509,0.76,0.22,0.54,0.06,0.142,0.128,0.214,0.456,0.20199999999999999,0.67,Republican,0.96,0.03,0.0227,42312,0.19,0.51,0.09,0.05
Illinois,Sangamon County,39.7582,-89.6589,0.51,0.47,0.04,0.017,0.03,0.155,0.233,0.564,0.047,0.7969999999999999,Republican,0.82,0.13,0.0369,61912,0.08,0.27,0.22,0.13
Montana,Petroleum County,47.1175,-108.2502,0.85,0.11,0.74,0.157,0.154,0.174,0.247,0.269,0.311,0.516,Republican,0.94,0,0.0243,51250,0.01,0.39,0.26,0.06
North Carolina,Hyde County,35.5305,-76.2508,0.57,0.42,0.15,0.133,0.03,0.08,0.259,0.498,0.163,0.757,Republican,0.67,0.3,0.0325,39663,0.19,0.39,0.08,0.02
Alabama,Marshall County,34.367,-86.3066,0.84,0.15,0.69,0.075,0.064,0.129,0.253,0.479,0.139,0.732,Republican,0.93,0.03,0.0235,45983,0.18,0.31,0.13,0.06
Texas,Val Verde County,29.8929,-101.1517,0.54,0.44,0.1,0.003,0.05,0.09,0.072,0.784,0.053000000000000005,0.856,Republican,0.93,0.01,0.0271,46147,0.32,0.24,0.13,0.06
Colorado,Teller County,38.8822,-105.1618,0.66,0.31,0.35,0.105,0.087,0.066,0.145,0.597,0.192,0.742,Republican,0.95,0.01,0.0352,66592,0.03,0.23,0.23,0.15
Louisiana,Bienville Parish,32.3472,-93.056,0.55,0.44,0.12,0.078,0.052,0.17,0.291,0.409,0.13,0.7,Republican,0.55,0.43,0.0197,30272,0.16,0.45,0.08,0.05
Missouri,Ralls County,39.5277,-91.522,0.78,0.21,0.56,0.16,0.106,0.248,0.196,0.29,0.266,0.486,Republican,0.96,0.01,0.0296,55377,0.1,0.49,0.1,0.05
Louisiana,Union Parish,32.8318,-92.3748,0.75,0.24,0.51,0.071,0.142,0.106,0.244,0.436,0.21299999999999997,0.6799999999999999,Republican,0.72,0.25,0.0226,44100,0.14,0.45,0.13,0.04
Georgia,Bryan County,32.0145,-81.4436,0.67,0.32,0.35,0.033,0.039,0.095,0.238,0.595,0.07200000000000001,0.833,Republican,0.77,0.14,0.0435,72624,0.08,0.24,0.21,0.13
Washington,Franklin County,46.5347,-118.8989,0.56,0.41,0.15,0.106,0.013,0.059,0.069,0.753,0.119,0.8220000000000001,Republican,0.7,0.02,0.0424,63584,0.25,0.26,0.11,0.06
Ohio,Mahoning County,41.0146,-80.7763,0.5,0.48,0.02,0.046,0.099,0.099,0.231,0.525,0.14500000000000002,0.756,Republican,0.8,0.15,0.0465,46042,0.09,0.38,0.16,0.08
Ohio,Huron County,41.1462,-82.5984,0.7,0.29,0.41,0.191,0.064,0.204,0.172,0.369,0.255,0.5409999999999999,Republican,0.96,0.01,0.027,52560,0.11,0.46,0.1,0.05
North Carolina,Pitt County,35.5933,-77.3745,0.45,0.54,-0.09,0.034,0.065,0.085,0.204,0.612,0.099,0.816,Democrat,0.57,0.35,0.0517,47437,0.11,0.24,0.2,0.12
Georgia,Terrell County,31.777,-84.437,0.45,0.54,-0.08,0.019,0.029,0.03,0.167,0.755,0.048,0.922,Democrat,0.36,0.6,0.0388,34768,0.23,0.32,0.06,0.06
Louisiana,West Carroll Parish,32.7885,-91.4568,0.85,0.14,0.71,0.022,0.063,0.124,0.114,0.677,0.08499999999999999,0.791,Republican,0.8,0.16,0.0485,38500,0.21,0.46,0.08,0.04
Iowa,Union County,41.0277,-94.2424,0.65,0.33,0.32,0.03,0.125,0.172,0.21,0.462,0.155,0.672,Republican,0.97,0.01,0.0286,49900,0.1,0.36,0.12,0.06
Pennsylvania,Schuylkill County,40.7058,-76.216,0.69,0.29,0.4,0.066,0.002,0.048,0.173,0.711,0.068,0.8839999999999999,Republican,0.94,0.03,0.0326,52280,0.11,0.47,0.11,0.05
Washington,Pacific County,46.5557,-123.7041,0.49,0.48,0.01,0.082,0.016,0.128,0.063,0.712,0.098,0.7749999999999999,Republican,0.87,0,0.0268,46733,0.12,0.3,0.12,0.07
Ohio,Paulding County,41.1166,-84.5802,0.75,0.23,0.51,0.095,0.061,0.24,0.314,0.29,0.156,0.604,Republican,0.95,0.01,0.0248,55330,0.1,0.48,0.11,0.04
Indiana,Lawrence County,38.8412,-86.4835,0.74,0.24,0.51,0.092,0.117,0.109,0.191,0.491,0.20900000000000002,0.6819999999999999,Republican,0.97,0,0.026,53610,0.12,0.42,0.1,0.06
North Carolina,Durham County,36.036,-78.8766,0.18,0.8,-0.62,0.017,0.014,0.033,0.104,0.832,0.031,0.9359999999999999,Democrat,0.52,0.36,0.0309,60958,0.12,0.18,0.25,0.23
Virginia,Harrisonburg city,38.4361,-78.8735,0.33,0.65,-0.32,0.029,0.066,0.129,0.205,0.571,0.095,0.7759999999999999,Democrat,0.8,0.07,0.0291,46679,0.16,0.26,0.2,0.16
Illinois,White County,38.0875,-88.1796,0.78,0.2,0.58,0.19,0.144,0.095,0.239,0.332,0.33399999999999996,0.571,Republican,0.98,0.01,0.0375,49290,0.1,0.37,0.1,0.05
South Dakota,Harding County,45.5803,-103.4958,0.92,0.06,0.86,0.105,0.068,0.145,0.235,0.446,0.173,0.681,Republican,0.93,0.02,0.0159,59655,0.09,0.32,0.22,0.04
Alabama,Dale County,31.4318,-85.611,0.72,0.26,0.46,0.089,0.113,0.118,0.22,0.46,0.202,0.68,Republican,0.72,0.2,0.0398,47214,0.14,0.32,0.12,0.06
Alabama,Bullock County,32.1005,-85.7157,0.25,0.75,-0.5,0.031,0.04,0.144,0.286,0.5,0.07100000000000001,0.786,Democrat,0.22,0.75,0.0208,37785,0.25,0.4,0.07,0.05
Texas,Matagorda County,28.8212,-96.011,0.72,0.27,0.45,0.004,0.051,0.113,0.161,0.67,0.05499999999999999,0.8310000000000001,Republican,0.68,0.1,0.0336,48913,0.19,0.32,0.13,0.05
North Carolina,Lenoir County,35.2388,-77.6412,0.51,0.48,0.03,0.109,0.041,0.112,0.228,0.51,0.15,0.738,Republican,0.55,0.39,0.0646,39402,0.2,0.32,0.1,0.05
Kentucky,Pike County,37.4691,-82.3958,0.8,0.19,0.61,0.096,0.088,0.123,0.148,0.545,0.184,0.6930000000000001,Republican,0.98,0.01,0.0393,34856,0.23,0.39,0.07,0.06
Ohio,Meigs County,39.0822,-82.0229,0.76,0.23,0.53,0.072,0.137,0.182,0.177,0.432,0.20900000000000002,0.609,Republican,0.97,0.01,0.0404,44899,0.16,0.42,0.08,0.05
Minnesota,Crow Wing County,46.4824,-94.0709,0.64,0.34,0.3,0.147,0.112,0.081,0.249,0.411,0.259,0.6599999999999999,Republican,0.96,0.01,0.0178,56549,0.06,0.3,0.16,0.09
Ohio,Licking County,40.0916,-82.4831,0.63,0.35,0.28,0.056,0.102,0.176,0.127,0.539,0.158,0.666,Republican,0.91,0.04,0.0278,64589,0.08,0.34,0.17,0.09
Iowa,Boone County,42.0365,-93.9316,0.57,0.41,0.16,0.09,0.08,0.1,0.197,0.533,0.16999999999999998,0.73,Republican,0.96,0.01,0.0186,64000,0.06,0.32,0.18,0.07
Illinois,Warren County,40.8488,-90.615,0.59,0.39,0.2,0.042,0.02,0.141,0.276,0.522,0.062,0.798,Republican,0.88,0.03,0.0481,50310,0.13,0.32,0.16,0.07
Idaho,Valley County,44.7666,-115.5663,0.56,0.42,0.14,0.041,0.118,0.102,0.378,0.361,0.159,0.739,Republican,0.99,0,0.009,64475,0.05,0.27,0.2,0.11
Illinois,Moultrie County,39.6415,-88.6193,0.74,0.25,0.49,0.081,0.073,0.213,0.243,0.39,0.154,0.633,Republican,0.98,0.01,0.0189,61456,0.15,0.33,0.12,0.07
Mississippi,Quitman County,34.2514,-90.2891,0.32,0.67,-0.35,0.041,0.101,0.1,0.312,0.446,0.14200000000000002,0.758,Democrat,0.27,0.72,0.1018,25283,0.29,0.31,0.07,0.04
Michigan,Osceola County,43.9898,-85.3253,0.72,0.26,0.46,0.07,0.073,0.089,0.238,0.531,0.14300000000000002,0.769,Republican,0.96,0.01,0.0355,44032,0.11,0.44,0.09,0.05
Arkansas,Howard County,34.0888,-93.9935,0.7,0.28,0.42,0.081,0.07,0.145,0.145,0.56,0.15100000000000002,0.7050000000000001,Republican,0.67,0.21,0.04,36059,0.15,0.38,0.1,0.03
Indiana,Harrison County,38.1952,-86.1113,0.72,0.26,0.46,0.094,0.084,0.205,0.258,0.359,0.178,0.617,Republican,0.97,0.01,0.0301,57712,0.12,0.4,0.12,0.07
Washington,Stevens County,48.3991,-117.8552,0.7,0.28,0.42,0.05,0.039,0.069,0.257,0.585,0.089,0.842,Republican,0.89,0,0.026,51775,0.09,0.35,0.12,0.07
Illinois,Richland County,38.7124,-88.0851,0.76,0.23,0.53,0.111,0.151,0.107,0.3,0.331,0.262,0.631,Republican,0.96,0.01,0.034,48894,0.11,0.3,0.14,0.07
Colorado,Bent County,37.9551,-103.0717,0.66,0.32,0.34,0.033,0.036,0.172,0.191,0.567,0.069,0.758,Republican,0.91,0.04,0.0178,30900,0.15,0.49,0.08,0.03
Wyoming,Campbell County,44.2482,-105.5482,0.87,0.1,0.77,0.216,0.164,0.131,0.201,0.289,0.38,0.49,Republican,0.94,0,0.0259,82659,0.07,0.36,0.14,0.05
New York,Putnam County,41.4267,-73.7495,0.53,0.45,0.08,0.003,0.018,0.022,0.105,0.852,0.020999999999999998,0.957,Republican,0.87,0.03,0.03,104486,0.07,0.27,0.23,0.17
Kansas,Chautauqua County,37.15,-96.2454,0.85,0.13,0.73,0.128,0.137,0.185,0.214,0.337,0.265,0.551,Republican,0.88,0.01,0.0372,40298,0.13,0.35,0.12,0.04
Alabama,Chambers County,32.9143,-85.392,0.57,0.42,0.16,0.117,0.037,0.15,0.136,0.56,0.154,0.6960000000000001,Republican,0.58,0.4,0.0223,42289,0.18,0.37,0.1,0.04
Florida,Manatee County,27.4719,-82.3153,0.58,0.42,0.16,0.074,0.037,0.062,0.201,0.626,0.11099999999999999,0.827,Republican,0.85,0.09,0.0316,59009,0.1,0.3,0.18,0.12
California,Kings County,36.0753,-119.8155,0.55,0.43,0.12,0.075,0.016,0.049,0.094,0.766,0.091,0.86,Republican,0.68,0.06,0.0395,57848,0.27,0.25,0.1,0.05
Kansas,Haskell County,37.5622,-100.8712,0.8,0.19,0.61,0.153,0.107,0.137,0.239,0.364,0.26,0.603,Republican,0.86,0,0.0209,55064,0.28,0.19,0.13,0.04
North Carolina,Stokes County,36.4019,-80.2395,0.78,0.21,0.58,0.015,0.034,0.116,0.247,0.588,0.049,0.835,Republican,0.93,0.04,0.0355,48054,0.16,0.4,0.11,0.04
Michigan,Gratiot County,43.2927,-84.6049,0.63,0.35,0.28,0.057,0.074,0.105,0.169,0.596,0.131,0.765,Republican,0.91,0.06,0.0294,47848,0.09,0.4,0.1,0.06
North Carolina,Transylvania County,35.2021,-82.7982,0.57,0.41,0.16,0.025,0.013,0.047,0.224,0.691,0.038,0.9149999999999999,Republican,0.92,0.05,0.0308,50212,0.11,0.27,0.2,0.13
Minnesota,Olmsted County,44.0038,-92.4018,0.43,0.54,-0.11,0.023,0.101,0.057,0.333,0.485,0.124,0.8180000000000001,Democrat,0.84,0.06,0.0216,76951,0.05,0.2,0.25,0.2
New Jersey,Morris County,40.862,-74.5445,0.47,0.51,-0.04,0.023,0.018,0.049,0.191,0.72,0.040999999999999995,0.911,Democrat,0.82,0.03,0.0293,115527,0.05,0.2,0.31,0.23
Kentucky,Green County,37.264,-85.5531,0.83,0.16,0.67,0.063,0.076,0.127,0.247,0.488,0.139,0.735,Republican,0.95,0.03,0.022,35899,0.25,0.38,0.07,0.06
Virginia,Louisa County,37.9782,-77.9629,0.61,0.38,0.23,0.025,0.045,0.036,0.146,0.748,0.07,0.894,Republican,0.8,0.15,0.0322,60975,0.15,0.33,0.14,0.1
Pennsylvania,Union County,40.963,-77.0622,0.61,0.37,0.24,0.078,0.032,0.103,0.211,0.576,0.11,0.7869999999999999,Republican,0.87,0.06,0.0179,59399,0.13,0.39,0.14,0.12
Pennsylvania,Berks County,40.4163,-75.926,0.53,0.45,0.08,0.036,0.012,0.06,0.174,0.719,0.048,0.893,Republican,0.82,0.05,0.0384,63728,0.13,0.37,0.16,0.09
West Virginia,Raleigh County,37.7714,-81.2486,0.75,0.24,0.5,0.087,0.083,0.257,0.148,0.426,0.16999999999999998,0.574,Republican,0.88,0.08,0.041,43748,0.13,0.4,0.11,0.07
North Dakota,Benson County,48.0694,-99.366,0.56,0.42,0.14,0.289,0.194,0.118,0.195,0.204,0.483,0.399,Republican,0.41,0,0.0326,47667,0.14,0.29,0.12,0.04
Nebraska,Madison County,41.9167,-97.6008,0.75,0.22,0.53,0.251,0.082,0.194,0.156,0.317,0.333,0.473,Republican,0.92,0.01,0.0218,53188,0.1,0.3,0.16,0.07
Wisconsin,Ozaukee County,43.384,-87.9509,0.55,0.43,0.12,0.076,0.113,0.091,0.3,0.42,0.189,0.72,Republican,0.94,0.01,0.0175,85215,0.03,0.2,0.3,0.19
Illinois,DeKalb County,41.8935,-88.7703,0.46,0.51,-0.06,0.007,0.012,0.034,0.191,0.756,0.019,0.9470000000000001,Democrat,0.84,0.08,0.0429,63317,0.08,0.25,0.2,0.12
