State,county_name,lat,lng,Percent_Republican,Percent_Democrat,Difference,Never,Rarely,Sometimes,Frequently,Always,Never_Rarely,Frequently_Always,Majority,White,Black,UnemploymentRate,Med_Household_Income,LessHS,HSGrad,Bachelors,GradProfDegree
Maine,Somerset County,45.5139,-69.9589,0.6,0.37,0.23,0.035,0.095,0.142,0.17,0.558,0.13,0.7280000000000001,Republican,0.97,0.01,0.0372,44256,0.12,0.4,0.12,0.05
South Carolina,Hampton County,32.7763,-81.1407,0.42,0.57,-0.15,0.13,0.156,0.025,0.148,0.542,0.28600000000000003,0.6900000000000001,Democrat,0.42,0.53,0.052,33429,0.19,0.43,0.09,0.03
Kentucky,Muhlenberg County,37.2158,-87.142,0.74,0.25,0.49,0.035,0.154,0.123,0.2,0.488,0.189,0.688,Republican,0.93,0.05,0.0328,43590,0.18,0.45,0.08,0.05
Wisconsin,Sauk County,43.4267,-89.9482,0.48,0.5,-0.02,0.063,0.163,0.113,0.193,0.468,0.226,0.661,Democrat,0.94,0.01,0.0201,59943,0.09,0.34,0.17,0.07
Louisiana,Webster Parish,32.7135,-93.335,0.65,0.34,0.31,0.134,0.044,0.063,0.265,0.494,0.178,0.759,Republican,0.64,0.34,0.0253,28951,0.16,0.42,0.11,0.05
Missouri,Crawford County,37.9764,-91.3039,0.8,0.19,0.6,0.167,0.148,0.136,0.159,0.391,0.315,0.55,Republican,0.97,0,0.0532,44438,0.22,0.39,0.08,0.04
Michigan,Saginaw County,43.335,-84.0532,0.49,0.49,-0,0.031,0.073,0.082,0.197,0.616,0.104,0.813,Democrat,0.75,0.19,0.0394,48000,0.11,0.33,0.13,0.08
Ohio,Hancock County,41.0019,-83.6665,0.68,0.3,0.38,0.076,0.127,0.122,0.302,0.373,0.203,0.675,Republican,0.92,0.02,0.0241,58450,0.08,0.36,0.16,0.11
Michigan,Chippewa County,46.3053,-84.5777,0.61,0.38,0.23,0.03,0.022,0.068,0.287,0.593,0.052,0.8799999999999999,Republican,0.71,0.06,0.0481,46486,0.1,0.34,0.14,0.07
Indiana,Warrick County,38.0922,-87.2721,0.63,0.35,0.28,0.045,0.038,0.117,0.252,0.548,0.08299999999999999,0.8,Republican,0.94,0.02,0.0221,73482,0.07,0.31,0.19,0.11
Texas,Dickens County,33.6165,-100.7789,0.86,0.13,0.73,0.032,0.071,0.111,0.254,0.532,0.103,0.786,Republican,0.92,0.03,0.0452,42540,0.16,0.36,0.12,0.07
Ohio,Crawford County,40.8508,-82.9198,0.75,0.24,0.51,0.101,0.107,0.126,0.184,0.482,0.20800000000000002,0.6659999999999999,Republican,0.97,0.01,0.0312,44971,0.1,0.47,0.09,0.05
Nebraska,Morrill County,41.716,-103.0106,0.83,0.15,0.68,0.261,0.119,0.124,0.273,0.223,0.38,0.496,Republican,0.95,0.01,0.0447,46194,0.13,0.32,0.14,0.05
Oregon,Benton County,44.4918,-123.4293,0.28,0.68,-0.4,0.007,0.007,0.059,0.156,0.77,0.014,0.926,Democrat,0.85,0.01,0.0324,62077,0.04,0.13,0.29,0.25
Idaho,Elmore County,43.354,-115.4693,0.71,0.25,0.46,0.206,0.044,0.038,0.173,0.539,0.25,0.712,Republican,0.85,0.03,0.0353,46855,0.1,0.27,0.14,0.05
Florida,St. Lucie County,27.3773,-80.472,0.5,0.49,0.02,0.077,0.022,0.08,0.173,0.648,0.099,0.821,Republican,0.73,0.2,0.0308,52322,0.14,0.33,0.14,0.08
Alabama,Perry County,32.6385,-87.2944,0.26,0.74,-0.48,0.025,0.084,0.087,0.187,0.618,0.10900000000000001,0.8049999999999999,Democrat,0.29,0.7,0.0383,23447,0.17,0.37,0.13,0.1
Kansas,Cowley County,37.2377,-96.8375,0.68,0.3,0.38,0.075,0.093,0.28,0.131,0.421,0.16799999999999998,0.552,Republican,0.88,0.03,0.0278,50102,0.09,0.3,0.14,0.07
Oklahoma,Kiowa County,34.9164,-98.9809,0.78,0.2,0.58,0.025,0.19,0.131,0.239,0.415,0.215,0.6539999999999999,Republican,0.8,0.03,0.0289,38019,0.15,0.37,0.12,0.05
Nebraska,Box Butte County,42.2198,-103.0857,0.77,0.2,0.57,0.303,0.112,0.096,0.285,0.203,0.415,0.488,Republican,0.92,0.01,0.0317,54004,0.09,0.33,0.13,0.05
South Dakota,Custer County,43.6776,-103.4515,0.7,0.28,0.42,0.132,0.088,0.156,0.229,0.396,0.22,0.625,Republican,0.93,0,0.0189,58522,0.06,0.35,0.16,0.08
New York,Kings County,40.6395,-73.9385,0.22,0.77,-0.55,0.035,0.034,0.058,0.141,0.732,0.069,0.873,Democrat,0.44,0.32,0.0392,60231,0.18,0.26,0.22,0.15
Maine,Oxford County,44.4999,-70.7566,0.53,0.44,0.09,0.069,0.065,0.064,0.213,0.589,0.134,0.8019999999999999,Republican,0.96,0,0.0314,49204,0.08,0.42,0.13,0.06
Louisiana,De Soto Parish,32.0554,-93.7372,0.62,0.37,0.25,0.035,0.075,0.132,0.162,0.596,0.11,0.758,Republican,0.61,0.35,0.0607,46006,0.17,0.43,0.09,0.05
Missouri,Scotland County,40.4526,-92.1471,0.79,0.2,0.59,0.073,0.112,0.209,0.246,0.361,0.185,0.607,Republican,0.99,0,0.0207,50085,0.2,0.42,0.1,0.04
North Carolina,Wayne County,35.364,-78.004,0.55,0.44,0.12,0.017,0.018,0.09,0.132,0.744,0.035,0.876,Republican,0.64,0.3,0.0377,44416,0.15,0.31,0.13,0.06
Iowa,O'Brien County,43.0838,-95.6249,0.78,0.21,0.57,0.173,0.054,0.267,0.187,0.319,0.22699999999999998,0.506,Republican,0.96,0.01,0.0127,53703,0.08,0.4,0.14,0.05
Montana,Ravalli County,46.0817,-114.1207,0.67,0.31,0.36,0.121,0.177,0.114,0.195,0.393,0.298,0.5880000000000001,Republican,0.96,0,0.029,53054,0.08,0.3,0.17,0.1
Oklahoma,Cleveland County,35.2031,-97.3265,0.56,0.42,0.14,0.046,0.101,0.079,0.25,0.524,0.14700000000000002,0.774,Republican,0.78,0.05,0.0282,64016,0.08,0.25,0.21,0.13
Tennessee,Henderson County,35.6542,-88.388,0.82,0.17,0.64,0.127,0.107,0.156,0.282,0.327,0.23399999999999999,0.609,Republican,0.9,0.08,0.0369,43305,0.17,0.42,0.1,0.04
Montana,Stillwater County,45.669,-109.3952,0.78,0.2,0.58,0.126,0.173,0.16,0.255,0.286,0.299,0.5409999999999999,Republican,0.96,0,0.0201,64645,0.06,0.36,0.18,0.07
Minnesota,Traverse County,45.7722,-96.4716,0.63,0.35,0.27,0.196,0.139,0.16,0.11,0.395,0.335,0.505,Republican,0.91,0.01,0.0263,51957,0.07,0.35,0.12,0.05
Wisconsin,Portage County,44.476,-89.5014,0.48,0.5,-0.03,0.157,0.159,0.215,0.188,0.28,0.316,0.468,Democrat,0.93,0.01,0.0223,58853,0.06,0.32,0.23,0.1
Texas,Dallam County,36.2779,-102.6022,0.86,0.12,0.74,0.119,0.074,0.123,0.289,0.396,0.193,0.685,Republican,0.9,0.01,0.0138,58811,0.3,0.28,0.12,0.04
Maryland,Washington County,39.6036,-77.814,0.59,0.38,0.21,0.031,0.047,0.085,0.194,0.642,0.078,0.8360000000000001,Republican,0.82,0.11,0.0327,60860,0.13,0.36,0.13,0.09
Texas,Starr County,26.5621,-98.7387,0.47,0.52,-0.05,0.039,0.008,0.023,0.1,0.831,0.047,0.9309999999999999,Democrat,0.95,0,0.0835,30387,0.47,0.26,0.07,0.03
Kentucky,Bath County,38.145,-83.7427,0.71,0.28,0.43,0.076,0.058,0.084,0.339,0.443,0.134,0.782,Republican,0.96,0.02,0.0316,44898,0.23,0.41,0.09,0.05
Alabama,Madison County,34.7631,-86.5502,0.53,0.45,0.08,0.062,0.05,0.123,0.177,0.589,0.112,0.766,Republican,0.68,0.24,0.032,65449,0.08,0.21,0.26,0.17
Kentucky,Bourbon County,38.2067,-84.2172,0.64,0.34,0.3,0.024,0.037,0.042,0.129,0.769,0.061,0.898,Republican,0.9,0.07,0.0317,49637,0.16,0.36,0.12,0.07
Illinois,Hamilton County,38.0815,-88.5391,0.79,0.19,0.6,0.138,0.179,0.1,0.21,0.373,0.317,0.583,Republican,0.99,0,0.0167,54046,0.13,0.35,0.09,0.08
Texas,Childress County,34.5291,-100.2076,0.85,0.14,0.72,0.147,0.124,0.189,0.206,0.334,0.271,0.54,Republican,0.85,0.08,0.0415,43181,0.18,0.35,0.14,0.04
Virginia,Pittsylvania County,36.8213,-79.3971,0.69,0.3,0.4,0.106,0.045,0.147,0.135,0.567,0.151,0.702,Republican,0.75,0.2,0.0328,47690,0.17,0.35,0.1,0.05
West Virginia,Hardy County,39.0075,-78.8579,0.77,0.22,0.55,0.039,0.152,0.103,0.23,0.476,0.191,0.706,Republican,0.91,0.06,0.0188,47438,0.2,0.45,0.08,0.06
Mississippi,Smith County,32.0177,-89.5067,0.78,0.22,0.56,0.106,0.172,0.111,0.194,0.417,0.27799999999999997,0.611,Republican,0.76,0.23,0.0221,43105,0.21,0.39,0.07,0.06
Florida,Gadsden County,30.5795,-84.6136,0.31,0.68,-0.37,0.06,0.033,0.104,0.227,0.575,0.093,0.8019999999999999,Democrat,0.4,0.56,0.035,41401,0.2,0.36,0.11,0.06
Texas,Fisher County,32.7428,-100.4022,0.79,0.19,0.6,0.097,0.097,0.109,0.186,0.51,0.194,0.696,Republican,0.88,0.03,0.0253,46146,0.14,0.35,0.14,0.05
Idaho,Kootenai County,47.6744,-116.7018,0.7,0.27,0.43,0.146,0.105,0.17,0.22,0.359,0.251,0.579,Republican,0.94,0,0.0252,57242,0.07,0.27,0.17,0.09
Texas,Callahan County,32.2976,-99.3735,0.88,0.11,0.77,0.049,0.06,0.119,0.205,0.567,0.109,0.7719999999999999,Republican,0.94,0.01,0.0223,48651,0.12,0.36,0.16,0.05
Oklahoma,Grady County,35.0169,-97.8841,0.8,0.18,0.62,0.047,0.098,0.185,0.249,0.422,0.14500000000000002,0.671,Republican,0.86,0.02,0.0206,60875,0.1,0.4,0.15,0.05
Missouri,Putnam County,40.4789,-93.0162,0.84,0.15,0.69,0.107,0.111,0.209,0.191,0.382,0.218,0.573,Republican,0.96,0,0.0139,42849,0.1,0.43,0.12,0.08
Florida,Hardee County,27.4927,-81.81,0.72,0.27,0.45,0.114,0.041,0.179,0.186,0.48,0.155,0.6659999999999999,Republican,0.8,0.08,0.0303,38682,0.23,0.49,0.07,0.03
West Virginia,Clay County,38.4625,-81.0751,0.8,0.19,0.61,0.098,0.097,0.162,0.152,0.491,0.195,0.643,Republican,0.99,0,0.0316,35024,0.23,0.52,0.05,0.04
Maine,Lincoln County,44.0664,-69.5435,0.43,0.54,-0.1,0.031,0.014,0.065,0.204,0.688,0.045,0.8919999999999999,Democrat,0.97,0,0.0223,57720,0.07,0.34,0.18,0.15
Illinois,Alexander County,37.1915,-89.3375,0.57,0.42,0.14,0.11,0.082,0.148,0.262,0.398,0.192,0.66,Republican,0.63,0.33,0.0325,36806,0.13,0.41,0.1,0.03
Indiana,Daviess County,38.7024,-87.072,0.8,0.18,0.62,0.049,0.061,0.13,0.214,0.546,0.11,0.76,Republican,0.95,0.02,0.0224,53629,0.26,0.34,0.08,0.05
Illinois,McDonough County,40.4562,-90.6779,0.57,0.41,0.17,0.041,0.091,0.097,0.182,0.59,0.132,0.772,Republican,0.9,0.05,0.0421,44471,0.06,0.31,0.16,0.16
Kentucky,Casey County,37.3223,-84.9283,0.86,0.13,0.73,0.164,0.076,0.161,0.154,0.444,0.24,0.598,Republican,0.97,0.01,0.0389,34819,0.24,0.41,0.07,0.06
Ohio,Gallia County,38.8247,-82.3169,0.77,0.22,0.55,0.074,0.082,0.203,0.178,0.463,0.156,0.641,Republican,0.94,0.02,0.0222,44858,0.16,0.41,0.1,0.06
West Virginia,Preston County,39.4693,-79.6682,0.77,0.22,0.55,0.057,0.028,0.087,0.247,0.58,0.085,0.827,Republican,0.92,0.05,0.0429,51888,0.13,0.47,0.1,0.07
Colorado,San Juan County,37.764,-107.6762,0.36,0.61,-0.25,0.032,0.038,0.097,0.27,0.563,0.07,0.833,Democrat,0.97,0,0.0134,54625,0.06,0.26,0.26,0.09
Georgia,Madison County,34.1278,-83.209,0.76,0.23,0.53,0.165,0.084,0.055,0.186,0.511,0.249,0.6970000000000001,Republican,0.84,0.11,0.0438,52500,0.17,0.4,0.11,0.08
Virginia,Williamsburg city,37.2692,-76.7076,0.29,0.7,-0.41,0.005,0.009,0.001,0.249,0.737,0.013999999999999999,0.986,Democrat,0.73,0.15,0.0289,57463,0.05,0.19,0.27,0.3
New Jersey,Middlesex County,40.4391,-74.4117,0.38,0.6,-0.22,0.02,0.016,0.054,0.146,0.765,0.036000000000000004,0.911,Democrat,0.58,0.1,0.0332,89533,0.1,0.25,0.26,0.18
Georgia,Appling County,31.7492,-82.2889,0.78,0.21,0.57,0.085,0.117,0.23,0.152,0.416,0.202,0.568,Republican,0.75,0.19,0.0212,40304,0.25,0.39,0.06,0.04
Indiana,Perry County,38.0796,-86.638,0.61,0.37,0.25,0.01,0.109,0.087,0.252,0.542,0.119,0.794,Republican,0.95,0.03,0.017,52348,0.1,0.45,0.09,0.07
Oklahoma,Major County,36.3116,-98.5359,0.89,0.09,0.8,0.169,0.072,0.212,0.285,0.261,0.241,0.546,Republican,0.89,0,0.017,54332,0.11,0.39,0.15,0.05
Texas,Hockley County,33.6076,-102.3432,0.81,0.18,0.62,0.031,0.072,0.06,0.237,0.6,0.103,0.837,Republican,0.88,0.03,0.0469,48248,0.24,0.27,0.11,0.05
Nebraska,Burt County,41.8515,-96.3286,0.69,0.28,0.41,0.066,0.063,0.09,0.321,0.46,0.129,0.781,Republican,0.95,0,0.0231,54203,0.09,0.36,0.16,0.05
Louisiana,East Feliciana Parish,30.8451,-91.0455,0.58,0.41,0.17,0.067,0.053,0.095,0.366,0.42,0.12,0.786,Republican,0.54,0.44,0.0237,51803,0.2,0.43,0.09,0.04
Oklahoma,Jackson County,34.588,-99.4148,0.78,0.2,0.58,0.021,0.127,0.148,0.291,0.411,0.148,0.702,Republican,0.72,0.07,0.0293,49703,0.15,0.27,0.15,0.09
Georgia,Oconee County,33.835,-83.4371,0.66,0.32,0.34,0.049,0.063,0.095,0.181,0.611,0.112,0.792,Republican,0.88,0.05,0.0198,90751,0.05,0.19,0.25,0.27
Colorado,El Paso County,38.8321,-104.5255,0.54,0.43,0.11,0.031,0.089,0.081,0.196,0.603,0.12,0.7989999999999999,Republican,0.8,0.06,0.0364,68779,0.06,0.2,0.24,0.15
North Carolina,Macon County,35.1505,-83.4221,0.69,0.3,0.38,0.153,0.039,0.085,0.182,0.541,0.192,0.7230000000000001,Republican,0.93,0.02,0.0239,45507,0.11,0.31,0.16,0.08
Minnesota,Roseau County,48.7751,-95.8108,0.72,0.26,0.46,0.077,0.151,0.211,0.234,0.327,0.22799999999999998,0.561,Republican,0.93,0.01,0.018,62202,0.07,0.35,0.16,0.04
Kansas,Ellis County,38.9147,-99.3173,0.71,0.27,0.44,0.154,0.154,0.224,0.148,0.32,0.308,0.46799999999999997,Republican,0.93,0.01,0.0204,52883,0.07,0.27,0.23,0.13
Wisconsin,Marquette County,43.8196,-89.3987,0.63,0.36,0.27,0.174,0.191,0.2,0.163,0.271,0.365,0.43400000000000005,Republican,0.96,0.01,0.0277,52288,0.11,0.41,0.11,0.05
Montana,Roosevelt County,48.2945,-105.0164,0.5,0.47,0.02,0.169,0.246,0.178,0.261,0.146,0.41500000000000004,0.40700000000000003,Republican,0.36,0,0.0673,43194,0.12,0.32,0.12,0.05
Missouri,Saline County,39.1368,-93.2018,0.68,0.31,0.37,0.083,0.23,0.112,0.186,0.389,0.313,0.575,Republican,0.86,0.05,0.0199,44720,0.16,0.38,0.13,0.07
Indiana,Fayette County,39.64,-85.1788,0.77,0.22,0.54,0.161,0.041,0.048,0.237,0.514,0.202,0.751,Republican,0.96,0.02,0.0285,46175,0.18,0.42,0.09,0.04
Idaho,Minidoka County,42.8543,-113.6375,0.78,0.19,0.59,0.134,0.219,0.106,0.152,0.39,0.353,0.542,Republican,0.94,0,0.0235,53370,0.21,0.32,0.09,0.05
Virginia,Carroll County,36.7316,-80.7339,0.81,0.18,0.63,0.064,0.073,0.084,0.285,0.496,0.137,0.7809999999999999,Republican,0.97,0.01,0.0148,44835,0.19,0.36,0.11,0.04
Idaho,Payette County,44.0067,-116.7608,0.78,0.19,0.59,0.081,0.199,0.174,0.242,0.304,0.28,0.546,Republican,0.88,0,0.0323,50579,0.14,0.35,0.11,0.05
Virginia,Surry County,37.1098,-76.9002,0.45,0.54,-0.08,0.006,0.021,0.003,0.249,0.721,0.027000000000000003,0.97,Democrat,0.53,0.44,0.0347,57962,0.15,0.36,0.13,0.07
Georgia,Rabun County,34.8817,-83.4021,0.78,0.21,0.57,0.1,0.083,0.124,0.229,0.464,0.183,0.6930000000000001,Republican,0.92,0.03,0.0191,42500,0.15,0.33,0.13,0.11
New York,Columbia County,42.2501,-73.6318,0.41,0.57,-0.17,0.014,0.004,0.029,0.104,0.848,0.018000000000000002,0.952,Democrat,0.89,0.05,0.0301,66787,0.1,0.3,0.17,0.15
Kentucky,Powell County,37.8311,-83.8237,0.73,0.25,0.49,0.112,0.099,0.102,0.232,0.455,0.21100000000000002,0.687,Republican,0.97,0,0.0337,37469,0.2,0.4,0.1,0.06
Kentucky,Simpson County,36.742,-86.5822,0.67,0.31,0.37,0.137,0.066,0.162,0.208,0.426,0.203,0.634,Republican,0.86,0.1,0.0275,48623,0.13,0.45,0.09,0.05
South Carolina,Berkeley County,33.1973,-79.9522,0.55,0.43,0.12,0.05,0.074,0.107,0.171,0.597,0.124,0.768,Republican,0.67,0.24,0.0313,63309,0.11,0.29,0.17,0.08
Texas,Palo Pinto County,32.7532,-98.313,0.82,0.17,0.64,0.027,0.023,0.029,0.181,0.74,0.05,0.921,Republican,0.92,0.03,0.0416,50154,0.16,0.34,0.12,0.05
New Jersey,Gloucester County,39.7173,-75.1414,0.48,0.5,-0.02,0.047,0.01,0.052,0.145,0.746,0.057,0.891,Democrat,0.81,0.1,0.0372,87283,0.07,0.32,0.22,0.11
South Dakota,Hamlin County,44.6738,-97.1883,0.77,0.21,0.56,0.119,0.143,0.256,0.137,0.345,0.262,0.482,Republican,0.97,0,0.0173,67105,0.08,0.43,0.16,0.05
Iowa,Audubon County,41.6846,-94.9058,0.67,0.31,0.36,0.224,0.073,0.194,0.187,0.322,0.297,0.509,Republican,0.97,0,0.0114,52055,0.11,0.37,0.12,0.05
Montana,Phillips County,48.2592,-107.9132,0.81,0.17,0.64,0.229,0.114,0.214,0.296,0.147,0.343,0.44299999999999995,Republican,0.84,0,0.0423,46212,0.09,0.39,0.12,0.05
New Jersey,Camden County,39.8035,-74.9597,0.32,0.66,-0.33,0.028,0.005,0.027,0.137,0.802,0.033,0.9390000000000001,Democrat,0.64,0.19,0.0439,70451,0.11,0.3,0.2,0.12
Mississippi,Harrison County,30.5118,-89.1159,0.62,0.37,0.25,0.093,0.071,0.142,0.237,0.457,0.16399999999999998,0.694,Republican,0.68,0.25,0.055,47894,0.12,0.29,0.15,0.08
Hawaii,Hawaii County,19.5987,-155.5185,0.31,0.67,-0.36,0.01,0.032,0.037,0.122,0.799,0.042,0.921,Democrat,0.33,0.01,0.0359,62409,0.08,0.3,0.2,0.1
Georgia,Bryan County,32.0145,-81.4436,0.67,0.32,0.35,0.033,0.039,0.095,0.238,0.595,0.07200000000000001,0.833,Republican,0.77,0.14,0.0435,72624,0.08,0.24,0.21,0.13
Virginia,Suffolk city,36.6953,-76.6398,0.4,0.58,-0.17,0.007,0.048,0.171,0.208,0.565,0.055,0.7729999999999999,Democrat,0.51,0.42,0.04,74884,0.1,0.27,0.17,0.12
New Mexico,McKinley County,35.5807,-108.2618,0.29,0.68,-0.39,0.01,0.06,0.008,0.202,0.721,0.06999999999999999,0.923,Democrat,0.14,0.01,0.0719,33834,0.23,0.34,0.06,0.05
Oklahoma,Woods County,36.7669,-98.8651,0.81,0.16,0.65,0.165,0.116,0.166,0.281,0.272,0.281,0.553,Republican,0.89,0.03,0.029,54282,0.1,0.3,0.21,0.1
Texas,Harris County,29.8577,-95.3936,0.43,0.56,-0.13,0.019,0.024,0.069,0.152,0.736,0.043,0.888,Democrat,0.63,0.19,0.0393,61705,0.19,0.23,0.2,0.11
Illinois,Christian County,39.5458,-89.2773,0.71,0.27,0.45,0.059,0.057,0.091,0.19,0.603,0.11599999999999999,0.7929999999999999,Republican,0.96,0.01,0.0185,52834,0.1,0.42,0.12,0.05
Alabama,Clarke County,31.6767,-87.8308,0.56,0.44,0.12,0.049,0.088,0.164,0.268,0.43,0.137,0.698,Republican,0.53,0.46,0.0552,37404,0.19,0.42,0.07,0.05
Montana,Carbon County,45.2274,-109.0281,0.63,0.34,0.29,0.14,0.169,0.163,0.26,0.267,0.30900000000000005,0.527,Republican,0.97,0,0.0252,58707,0.06,0.31,0.2,0.1
Missouri,Bollinger County,37.3222,-90.0259,0.86,0.13,0.74,0.097,0.152,0.132,0.268,0.35,0.249,0.618,Republican,0.97,0,0.0222,44158,0.2,0.47,0.06,0.03
Pennsylvania,Pike County,41.332,-75.0338,0.59,0.4,0.19,0.01,0.013,0.036,0.165,0.777,0.023,0.9420000000000001,Republican,0.88,0.06,0.045,65928,0.07,0.34,0.16,0.11
Washington,Yakima County,46.4571,-120.7384,0.53,0.45,0.08,0.012,0.035,0.069,0.143,0.74,0.047,0.883,Republican,0.77,0.01,0.0396,51637,0.26,0.28,0.1,0.07
Kentucky,Adair County,37.1042,-85.2806,0.83,0.16,0.67,0.076,0.115,0.167,0.243,0.399,0.191,0.642,Republican,0.95,0.03,0.0299,38021,0.2,0.39,0.08,0.08
Indiana,Clay County,39.3928,-87.1158,0.77,0.21,0.57,0.122,0.073,0.112,0.226,0.466,0.195,0.6920000000000001,Republican,0.96,0.01,0.0249,55637,0.09,0.44,0.12,0.05
Illinois,Montgomery County,39.231,-89.4789,0.69,0.28,0.41,0.018,0.05,0.091,0.316,0.525,0.068,0.841,Republican,0.95,0.04,0.0233,52748,0.12,0.39,0.1,0.06
South Dakota,Day County,45.3671,-97.6074,0.63,0.35,0.28,0.256,0.14,0.175,0.118,0.311,0.396,0.429,Republican,0.87,0,0.0138,46679,0.1,0.37,0.17,0.05
Tennessee,Loudon County,35.7348,-84.3118,0.74,0.24,0.5,0.041,0.06,0.107,0.219,0.573,0.101,0.7919999999999999,Republican,0.94,0.01,0.0243,58065,0.14,0.32,0.17,0.1
Oklahoma,Choctaw County,34.0266,-95.5522,0.81,0.19,0.62,0.064,0.113,0.119,0.251,0.454,0.177,0.7050000000000001,Republican,0.63,0.11,0.0369,34489,0.18,0.38,0.09,0.04
Georgia,Effingham County,32.3673,-81.3413,0.74,0.24,0.5,0.044,0.064,0.145,0.272,0.475,0.108,0.747,Republican,0.82,0.13,0.0238,66822,0.12,0.37,0.13,0.07
Illinois,Peoria County,40.788,-89.76,0.46,0.52,-0.06,0.039,0.036,0.096,0.251,0.577,0.075,0.828,Democrat,0.73,0.18,0.0459,55842,0.09,0.28,0.19,0.12
Pennsylvania,Lawrence County,40.9912,-80.3347,0.64,0.35,0.3,0.034,0.07,0.093,0.301,0.503,0.10400000000000001,0.804,Republican,0.93,0.04,0.037,50204,0.09,0.43,0.15,0.07
South Dakota,Ziebach County,44.9804,-101.6658,0.45,0.53,-0.08,0.105,0.053,0.172,0.235,0.434,0.158,0.669,Democrat,0.24,0,0.1556,37400,0.16,0.41,0.14,0.02
Oregon,Coos County,43.1742,-124.0594,0.59,0.38,0.2,0.128,0.061,0.136,0.099,0.577,0.189,0.6759999999999999,Republican,0.88,0.01,0.0384,45051,0.11,0.3,0.11,0.07
Indiana,Jefferson County,38.7858,-85.4385,0.66,0.32,0.34,0.083,0.219,0.218,0.225,0.255,0.302,0.48,Republican,0.95,0.02,0.0239,52718,0.1,0.42,0.11,0.06
Tennessee,Fentress County,36.3805,-84.9324,0.85,0.14,0.71,0.123,0.122,0.157,0.162,0.437,0.245,0.599,Republican,0.97,0,0.0361,36520,0.17,0.44,0.12,0.04
Texas,Nacogdoches County,31.616,-94.6159,0.65,0.34,0.31,0.094,0.06,0.097,0.221,0.528,0.154,0.749,Republican,0.76,0.18,0.0517,44847,0.17,0.29,0.16,0.09
Utah,Millard County,39.0732,-113.1006,0.88,0.1,0.78,0.432,0.023,0.088,0.171,0.286,0.455,0.45699999999999996,Republican,0.9,0,0.0153,62242,0.12,0.31,0.15,0.06
Colorado,Custer County,38.1087,-105.3675,0.68,0.31,0.37,0.017,0.098,0.153,0.234,0.498,0.115,0.732,Republican,0.93,0.03,0.0252,53119,0.06,0.21,0.22,0.11
Louisiana,Evangeline Parish,30.729,-92.4059,0.72,0.27,0.45,0.215,0.077,0.111,0.211,0.387,0.292,0.598,Republican,0.68,0.28,0.0666,31965,0.24,0.42,0.09,0.03
Texas,Washington County,30.2145,-96.4034,0.74,0.24,0.5,0.02,0.031,0.087,0.328,0.534,0.051000000000000004,0.8620000000000001,Republican,0.78,0.17,0.0324,54971,0.13,0.31,0.19,0.08
West Virginia,Pendleton County,38.6807,-79.3509,0.76,0.22,0.54,0.06,0.142,0.128,0.214,0.456,0.20199999999999999,0.67,Republican,0.96,0.03,0.0227,42312,0.19,0.51,0.09,0.05
Missouri,Gentry County,40.2121,-94.4099,0.8,0.19,0.61,0.101,0.166,0.182,0.299,0.251,0.267,0.55,Republican,0.97,0.01,0.0236,47790,0.11,0.42,0.14,0.05
Kansas,Norton County,39.7844,-99.9035,0.83,0.15,0.68,0.161,0.163,0.177,0.225,0.275,0.324,0.5,Republican,0.92,0.03,0.0065,49038,0.11,0.35,0.14,0.05
Kentucky,Rowan County,38.1963,-83.4211,0.6,0.39,0.21,0.159,0.097,0.047,0.231,0.467,0.256,0.6980000000000001,Republican,0.96,0.02,0.0263,38230,0.16,0.33,0.12,0.13
Texas,Rusk County,32.1077,-94.7619,0.77,0.22,0.56,0.038,0.04,0.101,0.331,0.491,0.078,0.8220000000000001,Republican,0.78,0.17,0.0384,55234,0.19,0.32,0.1,0.05
Mississippi,Issaquena County,32.7414,-90.9892,0.46,0.53,-0.07,0.03,0.06,0.137,0.162,0.612,0.09,0.774,Democrat,0.38,0.62,0.0358,24208,0.39,0.32,0.01,0.02
Pennsylvania,Jefferson County,41.1282,-78.9994,0.79,0.2,0.59,0.083,0.046,0.142,0.197,0.531,0.129,0.728,Republican,0.98,0.01,0.024,47603,0.11,0.51,0.1,0.06
Kentucky,Hopkins County,37.3088,-87.5408,0.73,0.25,0.48,0.04,0.067,0.174,0.217,0.502,0.10700000000000001,0.719,Republican,0.9,0.06,0.0303,47170,0.13,0.4,0.09,0.07
North Dakota,Williams County,48.3437,-103.4802,0.82,0.15,0.67,0.186,0.182,0.155,0.254,0.223,0.368,0.477,Republican,0.82,0.04,0.016,87161,0.1,0.27,0.18,0.05
Virginia,Norfolk city,36.8945,-76.259,0.26,0.72,-0.46,0.004,0.03,0.087,0.215,0.664,0.034,0.879,Democrat,0.47,0.41,0.0432,51590,0.12,0.26,0.18,0.11
Ohio,Belmont County,40.0158,-80.9885,0.71,0.28,0.44,0.082,0.086,0.118,0.25,0.464,0.16799999999999998,0.714,Republican,0.93,0.04,0.0288,50904,0.1,0.42,0.11,0.06
Indiana,Porter County,41.4605,-87.0673,0.52,0.46,0.06,0.05,0.1,0.108,0.231,0.512,0.15000000000000002,0.743,Republican,0.91,0.04,0.0269,71152,0.06,0.35,0.18,0.11
Idaho,Butte County,43.7229,-113.1721,0.85,0.13,0.72,0.107,0.213,0.159,0.222,0.298,0.32,0.52,Republican,0.99,0,0.0236,42132,0.07,0.36,0.12,0.04
Louisiana,Union Parish,32.8318,-92.3748,0.75,0.24,0.51,0.071,0.142,0.106,0.244,0.436,0.21299999999999997,0.6799999999999999,Republican,0.72,0.25,0.0226,44100,0.14,0.45,0.13,0.04
Montana,Mineral County,47.1472,-114.9983,0.71,0.27,0.45,0.097,0.278,0.119,0.183,0.323,0.375,0.506,Republican,0.93,0.01,0.0331,41705,0.11,0.37,0.11,0.05
South Carolina,Lancaster County,34.6867,-80.7054,0.61,0.38,0.23,0.067,0.068,0.048,0.224,0.594,0.135,0.818,Republican,0.74,0.21,0.038,58849,0.14,0.3,0.18,0.09
Florida,Lake County,28.7615,-81.7113,0.6,0.4,0.2,0.047,0.062,0.074,0.185,0.632,0.109,0.817,Republican,0.82,0.11,0.0287,54513,0.11,0.32,0.15,0.09
North Dakota,Griggs County,47.4573,-98.237,0.73,0.25,0.48,0.162,0.054,0.197,0.217,0.37,0.216,0.587,Republican,0.95,0,0.0113,53565,0.11,0.33,0.2,0.06
Oklahoma,Stephens County,34.4856,-97.8515,0.82,0.17,0.65,0.041,0.088,0.21,0.286,0.375,0.129,0.661,Republican,0.82,0.02,0.037,47214,0.13,0.42,0.12,0.05
Virginia,Fairfax city,38.8531,-77.2998,0.3,0.68,-0.38,0.025,0.015,0.075,0.173,0.712,0.04,0.885,Democrat,0.68,0.05,0.029,116979,0.06,0.13,0.31,0.29
Virginia,Dickenson County,37.1258,-82.3504,0.79,0.21,0.58,0.031,0.129,0.129,0.182,0.528,0.16,0.71,Republican,0.98,0.01,0.0182,29932,0.23,0.39,0.07,0.03
Virginia,Chesapeake city,36.6778,-76.3024,0.46,0.52,-0.06,0.018,0.025,0.095,0.182,0.68,0.043,0.8620000000000001,Democrat,0.61,0.3,0.0288,78640,0.08,0.24,0.21,0.12
Georgia,Colquitt County,31.1884,-83.7688,0.73,0.26,0.47,0.108,0.191,0.074,0.233,0.394,0.299,0.627,Republican,0.64,0.23,0.0452,36435,0.25,0.39,0.07,0.06
Nebraska,Otoe County,40.6485,-96.1348,0.68,0.3,0.38,0.11,0.097,0.09,0.275,0.428,0.20700000000000002,0.7030000000000001,Republican,0.94,0,0.0158,59167,0.07,0.35,0.17,0.07
Texas,Parmer County,34.5301,-102.7845,0.81,0.18,0.62,0.033,0.081,0.089,0.277,0.521,0.114,0.798,Republican,0.87,0.01,0.0117,55359,0.29,0.31,0.14,0.04
Michigan,Presque Isle County,45.3402,-83.9176,0.64,0.35,0.29,0.02,0.04,0.143,0.223,0.575,0.06,0.7979999999999999,Republican,0.97,0.01,0.0334,47948,0.1,0.38,0.11,0.07
Colorado,Phillips County,40.594,-102.3576,0.79,0.2,0.59,0.05,0.19,0.137,0.255,0.368,0.24,0.623,Republican,0.97,0,0.0086,51155,0.12,0.33,0.17,0.07
Montana,Fallon County,46.334,-104.4174,0.87,0.11,0.76,0.118,0.199,0.146,0.296,0.24,0.317,0.536,Republican,0.95,0,0.0079,64545,0.05,0.38,0.14,0.05
Massachusetts,Barnstable County,41.7242,-70.2915,0.37,0.61,-0.24,0.019,0.007,0.026,0.109,0.839,0.026,0.948,Democrat,0.92,0.03,0.0244,74336,0.05,0.24,0.25,0.19
Wisconsin,Crawford County,43.2395,-90.931,0.53,0.45,0.08,0.202,0.033,0.11,0.158,0.497,0.23500000000000001,0.655,Republican,0.95,0.02,0.0158,50595,0.09,0.4,0.13,0.06
Georgia,Cook County,31.154,-83.4305,0.7,0.29,0.4,0.098,0.134,0.123,0.203,0.441,0.232,0.644,Republican,0.69,0.27,0.032,41854,0.21,0.36,0.08,0.05
Texas,Lamb County,34.068600000000004,-102.3517,0.8,0.19,0.61,0.038,0.065,0.046,0.255,0.597,0.10300000000000001,0.852,Republican,0.9,0.04,0.0211,45111,0.25,0.32,0.11,0.04
South Carolina,Calhoun County,33.6749,-80.7803,0.52,0.47,0.05,0.06,0.047,0.129,0.173,0.592,0.107,0.7649999999999999,Republican,0.56,0.41,0.0338,46339,0.14,0.36,0.14,0.06
Iowa,Adams County,41.029,-94.6992,0.71,0.27,0.44,0.148,0.11,0.15,0.311,0.281,0.258,0.5920000000000001,Republican,0.99,0,0.0229,49255,0.06,0.39,0.12,0.04
Kansas,Washington County,39.7842,-97.0875,0.82,0.16,0.66,0.148,0.075,0.111,0.234,0.432,0.22299999999999998,0.666,Republican,0.98,0,0.0106,50588,0.08,0.41,0.15,0.05
Missouri,Mississippi County,36.8281,-89.2911,0.74,0.25,0.5,0.129,0.097,0.141,0.221,0.413,0.226,0.634,Republican,0.73,0.25,0.0402,35357,0.24,0.42,0.07,0.04
Iowa,Greene County,42.0362,-94.3968,0.64,0.35,0.29,0.116,0.141,0.235,0.153,0.354,0.257,0.507,Republican,0.96,0.01,0.0302,53050,0.07,0.4,0.13,0.06
Arkansas,Dallas County,33.9698,-92.6544,0.59,0.36,0.23,0.197,0.055,0.093,0.196,0.459,0.252,0.655,Republican,0.53,0.43,0.017,38072,0.16,0.44,0.1,0.02
Nebraska,Brown County,42.43,-99.9295,0.87,0.11,0.76,0.141,0.082,0.167,0.275,0.335,0.22299999999999998,0.6100000000000001,Republican,0.97,0,0.0032,43098,0.05,0.41,0.15,0.06
West Virginia,Mason County,38.7697,-82.0266,0.76,0.23,0.53,0.081,0.095,0.195,0.149,0.481,0.176,0.63,Republican,0.97,0,0.0179,46078,0.14,0.45,0.1,0.04
Oklahoma,Noble County,36.3886,-97.2305,0.77,0.2,0.57,0.069,0.085,0.1,0.253,0.493,0.15400000000000003,0.746,Republican,0.83,0,0.0252,56117,0.1,0.42,0.16,0.07
Georgia,Clinch County,30.915,-82.7063,0.74,0.26,0.48,0.06,0.058,0.134,0.168,0.58,0.118,0.748,Republican,0.66,0.28,0.0278,27658,0.31,0.34,0.06,0.04
Illinois,Massac County,37.219,-88.7077,0.73,0.25,0.48,0.097,0.043,0.232,0.256,0.373,0.14,0.629,Republican,0.91,0.06,0.0227,47481,0.13,0.34,0.1,0.04
Colorado,Adams County,39.8736,-104.3378,0.4,0.57,-0.16,0.032,0.027,0.071,0.185,0.685,0.059,0.8700000000000001,Democrat,0.82,0.03,0.0285,71202,0.16,0.29,0.17,0.08
California,Santa Clara County,37.2318,-121.6951,0.25,0.73,-0.47,0.015,0.014,0.04,0.168,0.764,0.028999999999999998,0.932,Democrat,0.44,0.02,0.0289,124055,0.12,0.14,0.28,0.25
Nebraska,Cheyenne County,41.2198,-102.995,0.8,0.18,0.62,0.116,0.159,0.164,0.338,0.223,0.275,0.561,Republican,0.95,0.01,0.016,53871,0.06,0.28,0.19,0.06
Louisiana,West Baton Rouge Parish,30.4634,-91.3127,0.55,0.44,0.11,0.044,0.04,0.07,0.197,0.649,0.08399999999999999,0.8460000000000001,Republican,0.58,0.4,0.0287,65385,0.13,0.37,0.15,0.07
California,San Francisco County,37.7562,-122.443,0.13,0.85,-0.73,0.017,0.011,0.035,0.121,0.817,0.028,0.938,Democrat,0.46,0.05,0.03,112449,0.12,0.12,0.35,0.23
Texas,Refugio County,28.3253,-97.1657,0.66,0.33,0.33,0.002,0.011,0.235,0.073,0.678,0.013,0.751,Republican,0.81,0.07,0.0361,50076,0.2,0.38,0.08,0.03
Mississippi,Rankin County,32.2641,-89.9458,0.72,0.27,0.45,0.031,0.103,0.127,0.179,0.561,0.134,0.74,Republican,0.76,0.21,0.0271,65996,0.11,0.27,0.19,0.1
Pennsylvania,Allegheny County,40.4688,-79.9812,0.39,0.59,-0.2,0.017,0.022,0.035,0.165,0.761,0.039,0.926,Democrat,0.8,0.13,0.0311,61043,0.05,0.27,0.24,0.17
Texas,Mason County,30.7177,-99.2261,0.8,0.18,0.62,0.043,0.091,0.163,0.247,0.456,0.134,0.7030000000000001,Republican,0.89,0,0.034,42276,0.12,0.27,0.2,0.08
Oklahoma,Oklahoma County,35.5515,-97.4072,0.49,0.48,0.01,0.096,0.064,0.097,0.225,0.518,0.16,0.743,Republican,0.68,0.15,0.0291,54520,0.13,0.26,0.2,0.12
Colorado,Lake County,39.2025,-106.3448,0.38,0.58,-0.2,0.002,0.016,0.036,0.193,0.753,0.018000000000000002,0.946,Democrat,0.85,0,0.0276,50565,0.16,0.26,0.24,0.09
Kansas,Kearny County,38.0003,-101.3199,0.8,0.18,0.62,0.155,0.098,0.172,0.229,0.346,0.253,0.575,Republican,0.95,0.03,0.0128,52599,0.24,0.32,0.08,0.07
North Dakota,Burke County,48.791,-102.5182,0.86,0.12,0.74,0.191,0.147,0.151,0.258,0.253,0.33799999999999997,0.511,Republican,0.96,0,0.0162,77232,0.07,0.28,0.19,0.04
Ohio,Wyandot County,40.8424,-83.3044,0.74,0.24,0.5,0.1,0.201,0.138,0.135,0.426,0.30100000000000005,0.5609999999999999,Republican,0.97,0,0.0175,55767,0.08,0.46,0.11,0.06
Oklahoma,Haskell County,35.2248,-95.1166,0.83,0.16,0.67,0.146,0.09,0.203,0.258,0.303,0.236,0.5609999999999999,Republican,0.72,0.01,0.0437,42348,0.15,0.37,0.12,0.04
Tennessee,Clay County,36.5511,-85.5439,0.78,0.21,0.57,0.099,0.105,0.264,0.126,0.406,0.20400000000000001,0.532,Republican,0.95,0.02,0.0187,32167,0.2,0.46,0.09,0.05
Oklahoma,Grant County,36.7961,-97.7861,0.86,0.13,0.73,0.205,0.136,0.145,0.255,0.257,0.34099999999999997,0.512,Republican,0.9,0.01,0.0218,57727,0.09,0.37,0.18,0.06
Nebraska,Boyd County,42.8997,-98.7665,0.87,0.12,0.76,0.081,0.159,0.267,0.184,0.309,0.24,0.493,Republican,0.96,0.01,0.0087,47778,0.04,0.44,0.13,0.03
West Virginia,Pocahontas County,38.3318,-80.0078,0.72,0.26,0.46,0.075,0.03,0.17,0.227,0.499,0.105,0.726,Republican,0.99,0,0.0218,41882,0.17,0.48,0.1,0.05
Florida,Okaloosa County,30.6913,-86.5917,0.69,0.29,0.39,0.091,0.083,0.147,0.21,0.469,0.174,0.6789999999999999,Republican,0.78,0.1,0.0305,63412,0.08,0.25,0.2,0.12
Colorado,Kit Carson County,39.3055,-102.603,0.81,0.17,0.64,0.024,0.323,0.119,0.344,0.19,0.34700000000000003,0.534,Republican,0.92,0.02,0.0223,49349,0.1,0.38,0.12,0.07
Texas,Matagorda County,28.8212,-96.011,0.72,0.27,0.45,0.004,0.051,0.113,0.161,0.67,0.05499999999999999,0.8310000000000001,Republican,0.68,0.1,0.0336,48913,0.19,0.32,0.13,0.05
Texas,Collin County,33.1879,-96.5724,0.51,0.47,0.04,0.021,0.026,0.054,0.181,0.719,0.047,0.8999999999999999,Republican,0.69,0.1,0.0263,96913,0.06,0.15,0.33,0.19
California,Glenn County,39.5982,-122.392,0.63,0.35,0.27,0.028,0.026,0.146,0.206,0.594,0.054,0.7999999999999999,Republican,0.81,0.01,0.0297,49633,0.25,0.27,0.11,0.03
Minnesota,Norman County,47.3265,-96.4553,0.57,0.41,0.16,0.122,0.154,0.109,0.186,0.428,0.276,0.614,Republican,0.93,0.01,0.0182,55085,0.08,0.37,0.15,0.04
Virginia,Pulaski County,37.0636,-80.7144,0.7,0.28,0.41,0.083,0.055,0.166,0.173,0.523,0.138,0.696,Republican,0.92,0.04,0.0333,53866,0.13,0.33,0.12,0.08
Florida,Broward County,26.1523,-80.4871,0.35,0.65,-0.3,0.026,0.023,0.043,0.117,0.791,0.049,0.908,Democrat,0.61,0.29,0.0398,59547,0.11,0.27,0.2,0.12
Michigan,Grand Traverse County,44.6688,-85.5605,0.51,0.48,0.03,0.004,0.041,0.082,0.2,0.672,0.045,0.8720000000000001,Republican,0.95,0.01,0.0285,63575,0.05,0.24,0.23,0.13
Nebraska,Jefferson County,40.1757,-97.1427,0.7,0.27,0.43,0.206,0.05,0.055,0.306,0.384,0.256,0.69,Republican,0.97,0.01,0.0101,44510,0.09,0.37,0.14,0.04
Arizona,Gila County,33.7997,-110.8117,0.66,0.32,0.34,0.073,0.014,0.03,0.336,0.547,0.087,0.883,Republican,0.77,0.01,0.0411,43524,0.14,0.28,0.12,0.07
Nebraska,Adams County,40.5245,-98.5012,0.69,0.29,0.4,0.057,0.128,0.089,0.291,0.435,0.185,0.726,Republican,0.93,0.01,0.0161,53023,0.1,0.28,0.16,0.09
Georgia,Lincoln County,33.7936,-82.4512,0.68,0.31,0.38,0.073,0.104,0.111,0.233,0.479,0.177,0.712,Republican,0.67,0.31,0.0179,39742,0.18,0.4,0.11,0.05
Minnesota,Isanti County,45.5615,-93.2951,0.68,0.29,0.39,0.104,0.099,0.215,0.14,0.442,0.203,0.5820000000000001,Republican,0.95,0,0.0277,74616,0.07,0.35,0.13,0.06
Missouri,Platte County,39.3803,-94.7738,0.5,0.47,0.03,0.044,0.04,0.088,0.189,0.638,0.08399999999999999,0.827,Republican,0.85,0.07,0.0266,80393,0.04,0.22,0.26,0.17
Washington,Cowlitz County,46.1932,-122.681,0.57,0.4,0.17,0.041,0.02,0.098,0.216,0.625,0.061,0.841,Republican,0.89,0.01,0.0372,54506,0.11,0.31,0.11,0.06
Oklahoma,Pittsburg County,34.9239,-95.7484,0.77,0.21,0.56,0.117,0.112,0.153,0.36,0.258,0.229,0.618,Republican,0.73,0.03,0.0335,46784,0.13,0.38,0.11,0.05
North Carolina,Catawba County,35.662,-81.2151,0.68,0.31,0.37,0.035,0.07,0.13,0.214,0.551,0.10500000000000001,0.765,Republican,0.79,0.08,0.0405,52056,0.14,0.3,0.15,0.07
Mississippi,Yazoo County,32.7803,-90.3964,0.46,0.53,-0.06,0.05,0.038,0.145,0.159,0.608,0.088,0.767,Democrat,0.37,0.6,0.0671,33279,0.21,0.39,0.1,0.04
Texas,Tyler County,30.7712,-94.3766,0.85,0.15,0.7,0.021,0.066,0.054,0.155,0.703,0.08700000000000001,0.858,Republican,0.85,0.11,0.0581,44497,0.18,0.43,0.1,0.04
South Dakota,Campbell County,45.7712,-100.0516,0.86,0.13,0.72,0.155,0.167,0.122,0.277,0.278,0.322,0.555,Republican,0.98,0,0.0049,54449,0.1,0.35,0.25,0.04
Indiana,Benton County,40.6063,-87.3109,0.73,0.25,0.49,0.082,0.126,0.112,0.183,0.496,0.20800000000000002,0.679,Republican,0.97,0,0.0205,49488,0.1,0.43,0.12,0.04
New Mexico,Union County,36.4816,-103.471,0.78,0.21,0.56,0.12,0.118,0.127,0.242,0.393,0.238,0.635,Republican,0.87,0.02,0.0125,35884,0.18,0.47,0.06,0.06
Missouri,Andrew County,39.9835,-94.8021,0.74,0.24,0.5,0.133,0.197,0.164,0.234,0.272,0.33,0.506,Republican,0.95,0.01,0.0185,58772,0.08,0.37,0.17,0.08
Pennsylvania,Sullivan County,41.4462,-76.512200000000007,0.73,0.26,0.47,0.025,0.035,0.038,0.141,0.76,0.060000000000000005,0.901,Republican,0.96,0.02,0.0322,47407,0.1,0.48,0.11,0.06
Michigan,Mackinac County,46.0802,-85.0868,0.61,0.38,0.24,0.032,0.04,0.073,0.256,0.599,0.07200000000000001,0.855,Republican,0.74,0.03,0.0527,47938,0.09,0.34,0.13,0.11
Illinois,Jo Daviess County,42.3658,-90.2125,0.57,0.41,0.16,0.034,0.104,0.22,0.178,0.465,0.138,0.643,Republican,0.97,0.01,0.0233,57946,0.08,0.36,0.15,0.1
California,Yolo County,38.6866,-121.9016,0.28,0.69,-0.41,0.007,0.005,0.04,0.156,0.791,0.012,0.9470000000000001,Democrat,0.69,0.03,0.0372,70228,0.13,0.18,0.22,0.2
New Hampshire,Grafton County,43.9406,-71.8208,0.37,0.61,-0.25,0.039,0.026,0.032,0.199,0.705,0.065,0.9039999999999999,Democrat,0.92,0.01,0.0182,63389,0.07,0.26,0.2,0.2
Illinois,Monroe County,38.2784,-90.1773,0.67,0.31,0.36,0.003,0.04,0.112,0.174,0.67,0.043000000000000003,0.8440000000000001,Republican,0.97,0,0.0194,85747,0.04,0.28,0.23,0.12
North Carolina,Columbus County,34.2656,-78.655,0.64,0.36,0.28,0.179,0.043,0.113,0.155,0.511,0.22199999999999998,0.666,Republican,0.62,0.3,0.0304,37628,0.17,0.36,0.09,0.05
New Mexico,Santa Fe County,35.5069,-105.9763,0.22,0.76,-0.54,0.008,0.016,0.031,0.143,0.803,0.024,0.9460000000000001,Democrat,0.84,0.01,0.0239,61200,0.11,0.22,0.2,0.21
New York,Genesee County,43.0009,-78.1938,0.65,0.33,0.32,0.001,0.017,0.015,0.187,0.781,0.018000000000000002,0.968,Republican,0.92,0.02,0.0268,60524,0.08,0.36,0.13,0.09
Ohio,Delaware County,40.2784,-83.0049,0.53,0.46,0.07,0.018,0.081,0.084,0.177,0.64,0.099,0.817,Republican,0.87,0.03,0.0194,106908,0.04,0.18,0.34,0.2
Iowa,Des Moines County,40.9232,-91.1815,0.53,0.45,0.09,0.135,0.081,0.109,0.122,0.553,0.21600000000000003,0.675,Republican,0.9,0.06,0.0331,51267,0.08,0.33,0.14,0.06
Minnesota,Steele County,44.0223,-93.226,0.6,0.37,0.22,0.074,0.062,0.144,0.354,0.365,0.136,0.719,Republican,0.9,0.03,0.0259,64903,0.07,0.34,0.18,0.08
Nebraska,Richardson County,40.125,-95.7175,0.74,0.24,0.5,0.098,0.185,0.166,0.252,0.298,0.28300000000000003,0.55,Republican,0.94,0,0.0209,47917,0.08,0.36,0.14,0.05
Washington,Lincoln County,47.5763,-118.4187,0.73,0.24,0.49,0.017,0.086,0.023,0.108,0.765,0.103,0.873,Republican,0.93,0.01,0.0184,54631,0.07,0.29,0.17,0.08
Minnesota,Rice County,44.3543,-93.2967,0.49,0.49,0,0.089,0.038,0.117,0.301,0.454,0.127,0.755,Republican,0.86,0.06,0.0254,68584,0.09,0.31,0.18,0.1
Kansas,Barton County,38.479,-98.7565,0.77,0.21,0.56,0.107,0.131,0.12,0.211,0.43,0.238,0.641,Republican,0.94,0.01,0.0256,49723,0.11,0.32,0.15,0.06
Georgia,Turner County,31.7164,-83.6241,0.62,0.37,0.25,0.141,0.042,0.094,0.175,0.547,0.183,0.722,Republican,0.57,0.41,0.0328,37039,0.19,0.38,0.07,0.05
Ohio,Ottawa County,41.5381,-83.1409,0.61,0.38,0.23,0.052,0.035,0.084,0.219,0.609,0.087,0.828,Republican,0.95,0.01,0.0225,59099,0.08,0.35,0.15,0.08
Minnesota,Kittson County,48.7766,-96.7829,0.59,0.38,0.2,0.068,0.168,0.221,0.251,0.292,0.23600000000000002,0.5429999999999999,Republican,0.96,0.01,0.0137,59643,0.05,0.36,0.18,0.08
Connecticut,Hartford County,41.8064,-72.7329,0.35,0.63,-0.28,0.015,0.023,0.065,0.13,0.767,0.038,0.897,Democrat,0.71,0.14,0.0384,75148,0.1,0.27,0.21,0.17
Minnesota,Watonwan County,43.9784,-94.6141,0.6,0.38,0.21,0.149,0.053,0.225,0.221,0.352,0.20199999999999999,0.573,Republican,0.86,0.01,0.0192,54065,0.16,0.41,0.12,0.04
Texas,Hood County,32.43,-97.8323,0.81,0.17,0.64,0.009,0.122,0.135,0.124,0.61,0.131,0.734,Republican,0.95,0.01,0.0205,64041,0.11,0.3,0.17,0.09
Iowa,Osceola County,43.3786,-95.6237,0.81,0.18,0.63,0.195,0.051,0.233,0.199,0.322,0.246,0.521,Republican,0.94,0.01,0.0194,59725,0.12,0.37,0.13,0.05
Minnesota,Becker County,46.9347,-95.674,0.64,0.34,0.3,0.052,0.28,0.175,0.24,0.252,0.332,0.492,Republican,0.88,0,0.0233,60284,0.07,0.32,0.17,0.08
North Carolina,Brunswick County,34.071,-78.2377,0.62,0.37,0.25,0.024,0.018,0.036,0.248,0.673,0.041999999999999996,0.921,Republican,0.84,0.1,0.0283,58236,0.09,0.28,0.19,0.11
Mississippi,Lauderdale County,32.4043,-88.6625,0.57,0.41,0.16,0.036,0.018,0.105,0.197,0.643,0.05399999999999999,0.8400000000000001,Republican,0.54,0.44,0.0287,42534,0.15,0.27,0.12,0.08
Nebraska,Wayne County,42.2093,-97.1193,0.72,0.24,0.48,0.245,0.12,0.155,0.141,0.34,0.365,0.481,Republican,0.95,0.01,0.0181,56456,0.04,0.28,0.22,0.1
Iowa,Buena Vista County,42.7355,-95.1511,0.62,0.36,0.26,0.183,0.062,0.26,0.207,0.288,0.245,0.495,Republican,0.77,0.03,0.0356,57125,0.22,0.3,0.13,0.06
Louisiana,Bienville Parish,32.3472,-93.056,0.55,0.44,0.12,0.078,0.052,0.17,0.291,0.409,0.13,0.7,Republican,0.55,0.43,0.0197,30272,0.16,0.45,0.08,0.05
Virginia,Rappahannock County,38.6848,-78.1592,0.56,0.42,0.14,0.023,0.019,0.077,0.164,0.717,0.041999999999999996,0.881,Republican,0.9,0.05,0.0255,74284,0.12,0.28,0.18,0.17
Colorado,San Miguel County,38.0038,-108.4057,0.22,0.76,-0.54,0.043,0.058,0.074,0.26,0.565,0.101,0.825,Democrat,0.95,0,0.0195,67038,0.03,0.15,0.43,0.16
Georgia,Towns County,34.9167,-83.7373,0.8,0.19,0.61,0.076,0.096,0.098,0.199,0.531,0.172,0.73,Republican,0.96,0.01,0.0192,48219,0.1,0.3,0.18,0.12
Oregon,Multnomah County,45.5468,-122.4147,0.18,0.79,-0.61,0.013,0.016,0.054,0.178,0.738,0.028999999999999998,0.9159999999999999,Democrat,0.78,0.05,0.0342,69176,0.09,0.17,0.28,0.18
Vermont,Orange County,44.0057,-72.3768,0.36,0.6,-0.24,0.029,0.095,0.073,0.107,0.696,0.124,0.8029999999999999,Democrat,0.97,0.01,0.0249,60925,0.08,0.36,0.16,0.13
South Dakota,Hughes County,44.389,-99.996,0.63,0.34,0.29,0.091,0.027,0.109,0.251,0.523,0.118,0.774,Republican,0.84,0,0.0206,64783,0.08,0.27,0.24,0.1
Missouri,Dallas County,37.6804,-93.0237,0.82,0.17,0.65,0.165,0.143,0.167,0.154,0.371,0.308,0.525,Republican,0.96,0,0.0175,43542,0.17,0.45,0.07,0.06
Florida,Lee County,26.5778,-81.8337,0.59,0.4,0.19,0.052,0.05,0.073,0.176,0.648,0.10200000000000001,0.8240000000000001,Republican,0.84,0.09,0.0279,57832,0.12,0.31,0.18,0.11
Iowa,Jefferson County,41.0318,-91.9489,0.5,0.48,0.01,0.074,0.116,0.221,0.191,0.398,0.19,0.589,Republican,0.83,0.07,0.0413,47708,0.07,0.28,0.18,0.14
Texas,Polk County,30.7927,-94.83,0.77,0.22,0.55,0.016,0.099,0.052,0.144,0.689,0.115,0.833,Republican,0.84,0.1,0.0376,49279,0.18,0.39,0.09,0.04
Colorado,Broomfield County,39.9541,-105.0527,0.35,0.62,-0.27,0.018,0.005,0.042,0.201,0.734,0.023,0.935,Democrat,0.86,0.01,0.0234,96416,0.03,0.14,0.34,0.21
Illinois,Rock Island County,41.4673,-90.5674,0.43,0.55,-0.12,0.078,0.025,0.066,0.235,0.596,0.10300000000000001,0.831,Democrat,0.8,0.1,0.0358,54858,0.11,0.29,0.15,0.08
Colorado,Mesa County,39.0183,-108.4664,0.63,0.35,0.28,0.075,0.105,0.098,0.222,0.499,0.18,0.721,Republican,0.94,0.01,0.0414,55379,0.09,0.28,0.18,0.1
New Mexico,Los Alamos County,35.8694,-106.3074,0.35,0.61,-0.27,0.001,0.041,0.076,0.173,0.709,0.042,0.8819999999999999,Democrat,0.86,0.01,0.0233,121324,0.02,0.09,0.27,0.41
Minnesota,Red Lake County,47.8717,-96.0953,0.66,0.31,0.35,0.095,0.241,0.194,0.184,0.286,0.33599999999999997,0.47,Republican,0.95,0,0.0188,58576,0.07,0.37,0.13,0.03
Indiana,Orange County,38.5418,-86.495,0.73,0.25,0.48,0.096,0.086,0.073,0.315,0.43,0.182,0.745,Republican,0.96,0.03,0.0213,47917,0.17,0.47,0.07,0.04
Kansas,Ottawa County,39.1325,-97.6502,0.82,0.16,0.66,0.131,0.117,0.164,0.191,0.396,0.248,0.587,Republican,0.96,0.01,0.0151,54784,0.05,0.35,0.19,0.06
Georgia,Coffee County,31.5493,-82.8492,0.7,0.3,0.4,0.085,0.124,0.164,0.222,0.404,0.20900000000000002,0.626,Republican,0.68,0.29,0.0207,40859,0.24,0.37,0.08,0.05
Tennessee,Gibson County,35.9966,-88.9326,0.73,0.26,0.47,0.182,0.086,0.111,0.26,0.361,0.268,0.621,Republican,0.78,0.17,0.0336,43171,0.15,0.39,0.12,0.06
Arkansas,Saline County,34.6466,-92.6765,0.69,0.28,0.41,0.066,0.044,0.154,0.212,0.524,0.11,0.736,Republican,0.88,0.07,0.0237,64412,0.09,0.31,0.17,0.09
Texas,Mills County,31.4952,-98.5955,0.89,0.11,0.78,0.041,0.117,0.062,0.261,0.518,0.158,0.779,Republican,0.98,0,0.0076,49306,0.17,0.32,0.14,0.04
Michigan,Calhoun County,42.2465,-85.0056,0.55,0.44,0.11,0.063,0.121,0.078,0.178,0.559,0.184,0.7370000000000001,Republican,0.81,0.11,0.0377,48607,0.09,0.37,0.14,0.07
Ohio,Butler County,39.4386,-84.5756,0.61,0.37,0.24,0.047,0.072,0.106,0.244,0.531,0.119,0.775,Republican,0.84,0.08,0.0294,66117,0.09,0.33,0.2,0.11
Kentucky,Madison County,37.7202,-84.278,0.62,0.35,0.27,0.088,0.094,0.114,0.233,0.471,0.182,0.704,Republican,0.91,0.04,0.0355,50060,0.13,0.28,0.18,0.13
South Carolina,Oconee County,34.7534,-83.0658,0.73,0.26,0.47,0.142,0.061,0.103,0.221,0.472,0.20299999999999999,0.693,Republican,0.88,0.07,0.0294,49134,0.15,0.29,0.15,0.11
Illinois,Williamson County,37.7303,-88.9299,0.68,0.3,0.37,0.095,0.122,0.136,0.183,0.464,0.217,0.647,Republican,0.91,0.04,0.0322,50734,0.08,0.31,0.15,0.1
Virginia,Russell County,36.9339,-82.0954,0.81,0.18,0.64,0.082,0.137,0.212,0.24,0.329,0.21900000000000003,0.569,Republican,0.98,0.01,0.0282,39758,0.2,0.38,0.09,0.03
Texas,Maverick County,28.7425,-100.3145,0.45,0.54,-0.09,0.005,0.091,0.129,0.13,0.645,0.096,0.775,Democrat,0.93,0,0.0524,39625,0.4,0.23,0.1,0.03
North Carolina,Chatham County,35.7026,-79.2553,0.44,0.55,-0.12,0.007,0.025,0.063,0.139,0.766,0.032,0.905,Democrat,0.81,0.11,0.0246,67031,0.11,0.21,0.22,0.2
Georgia,Gilmer County,34.6912,-84.4556,0.81,0.18,0.64,0.128,0.042,0.087,0.198,0.545,0.17,0.7430000000000001,Republican,0.92,0.01,0.0229,52625,0.18,0.35,0.12,0.08
Texas,Motley County,34.0741,-100.7798,0.93,0.07,0.86,0.067,0.053,0.084,0.206,0.591,0.12,0.7969999999999999,Republican,0.88,0.02,0.0396,43859,0.12,0.31,0.15,0.02
Texas,Brown County,31.7743,-98.9998,0.86,0.13,0.73,0.085,0.077,0.066,0.239,0.534,0.162,0.773,Republican,0.91,0.04,0.0233,48365,0.13,0.36,0.14,0.05
Kentucky,Martin County,37.8016,-82.5132,0.89,0.1,0.79,0.108,0.055,0.096,0.104,0.637,0.163,0.741,Republican,0.93,0.05,0.0325,41013,0.26,0.39,0.09,0.03
Mississippi,Jefferson Davis County,31.5697,-89.823,0.41,0.58,-0.17,0.141,0.132,0.101,0.181,0.445,0.273,0.626,Democrat,0.38,0.61,0.0451,32116,0.18,0.37,0.07,0.08
New Mexico,Hidalgo County,31.914,-108.7148,0.57,0.42,0.15,0.056,0.037,0.186,0.153,0.569,0.093,0.722,Republican,0.94,0.01,0.0362,42526,0.18,0.35,0.1,0.05
New York,Tompkins County,42.452,-76.4736,0.24,0.74,-0.49,0.012,0.01,0.046,0.098,0.833,0.022,0.9309999999999999,Democrat,0.8,0.04,0.0226,60240,0.06,0.19,0.23,0.31
Missouri,Monroe County,39.4955,-92.0007,0.78,0.21,0.57,0.164,0.105,0.182,0.203,0.346,0.269,0.5489999999999999,Republican,0.95,0.03,0.0128,43966,0.11,0.48,0.09,0.04
Missouri,Osage County,38.4604,-91.8618,0.85,0.14,0.71,0.067,0.133,0.171,0.16,0.469,0.2,0.629,Republican,0.99,0,0.0131,61687,0.1,0.44,0.14,0.05
New Hampshire,Belknap County,43.5179,-71.4227,0.54,0.44,0.1,0.114,0.02,0.11,0.158,0.598,0.134,0.756,Republican,0.96,0.01,0.0251,69447,0.07,0.29,0.2,0.13
New York,Rockland County,41.1524,-74.0241,0.49,0.5,-0.02,0.011,0.018,0.054,0.195,0.722,0.028999999999999998,0.917,Democrat,0.71,0.12,0.0354,93024,0.12,0.23,0.22,0.19
Pennsylvania,Delaware County,39.9167,-75.3991,0.36,0.63,-0.27,0.01,0.01,0.044,0.123,0.814,0.02,0.9369999999999999,Democrat,0.69,0.22,0.0365,74477,0.07,0.3,0.22,0.17
Missouri,Gasconade County,38.4409,-91.5079,0.79,0.2,0.58,0.086,0.207,0.168,0.135,0.404,0.293,0.539,Republican,0.97,0.01,0.0164,54885,0.12,0.39,0.11,0.08
Alabama,Franklin County,34.4417,-87.8437,0.82,0.17,0.66,0.065,0.071,0.223,0.156,0.484,0.136,0.64,Republican,0.83,0.04,0.0263,43514,0.23,0.37,0.09,0.05
Missouri,Lincoln County,39.058,-90.9601,0.75,0.23,0.53,0.063,0.119,0.236,0.282,0.299,0.182,0.581,Republican,0.95,0.02,0.0239,64196,0.11,0.42,0.12,0.05
Georgia,Chatham County,32.0042,-81.1328,0.4,0.59,-0.19,0.035,0.04,0.144,0.158,0.624,0.07500000000000001,0.782,Democrat,0.53,0.4,0.0484,56842,0.1,0.24,0.21,0.13
Kentucky,Menifee County,37.9414,-83.5989,0.75,0.24,0.5,0.161,0.088,0.067,0.215,0.468,0.249,0.683,Republican,0.98,0,0.0156,39325,0.23,0.45,0.08,0.03
Utah,Juab County,39.7027,-112.7848,0.87,0.11,0.76,0.335,0.023,0.079,0.193,0.369,0.35800000000000004,0.562,Republican,0.94,0,0.0202,61463,0.09,0.39,0.1,0.06
Virginia,Richmond city,37.5295,-77.4756,0.15,0.83,-0.68,0.06,0.031,0.092,0.275,0.541,0.091,0.8160000000000001,Democrat,0.45,0.47,0.0429,47250,0.15,0.22,0.24,0.16
Illinois,Kendall County,41.5906,-88.4288,0.46,0.52,-0.06,0.001,0.009,0.065,0.136,0.788,0.009999999999999998,0.924,Democrat,0.81,0.07,0.0325,96563,0.08,0.23,0.23,0.14
Texas,Roberts County,35.8384,-100.8136,0.96,0.03,0.93,0.16,0.074,0.133,0.205,0.427,0.23399999999999999,0.632,Republican,0.97,0,0.0108,68750,0.07,0.3,0.16,0.09
Arkansas,Clay County,36.3683,-90.4175,0.79,0.19,0.6,0.082,0.124,0.157,0.242,0.395,0.20600000000000002,0.637,Republican,0.96,0.01,0.029,37233,0.18,0.42,0.07,0.05
North Carolina,Duplin County,34.9365,-77.933,0.61,0.39,0.22,0.068,0.044,0.143,0.126,0.62,0.112,0.746,Republican,0.71,0.24,0.0462,41764,0.24,0.32,0.08,0.04
Virginia,York County,37.2432,-76.5636,0.52,0.46,0.07,0.006,0.021,0.024,0.162,0.786,0.027000000000000003,0.9480000000000001,Republican,0.74,0.13,0.0339,92069,0.05,0.19,0.25,0.22
West Virginia,Braxton County,38.6999,-80.7193,0.73,0.26,0.47,0.102,0.131,0.167,0.202,0.398,0.23299999999999998,0.6000000000000001,Republican,0.97,0.01,0.075,41466,0.2,0.46,0.11,0.04
Indiana,Lawrence County,38.8412,-86.4835,0.74,0.24,0.51,0.092,0.117,0.109,0.191,0.491,0.20900000000000002,0.6819999999999999,Republican,0.97,0,0.026,53610,0.12,0.42,0.1,0.06
Illinois,Wayne County,38.4296,-88.4256,0.84,0.14,0.7,0.086,0.142,0.128,0.3,0.345,0.22799999999999998,0.645,Republican,0.97,0.02,0.0168,50251,0.12,0.35,0.11,0.04
Massachusetts,Bristol County,41.7972,-71.1144,0.43,0.55,-0.12,0.016,0.02,0.056,0.161,0.747,0.036000000000000004,0.908,Democrat,0.84,0.04,0.0351,69095,0.14,0.3,0.18,0.1
Texas,Wharton County,29.2779,-96.2221,0.71,0.28,0.43,0.011,0.072,0.076,0.216,0.625,0.08299999999999999,0.841,Republican,0.81,0.14,0.0308,48310,0.22,0.28,0.12,0.06
Washington,San Juan County,48.5782,-122.965,0.23,0.74,-0.51,0.015,0.004,0.021,0.229,0.73,0.019,0.959,Democrat,0.92,0.01,0.013,63622,0.04,0.16,0.29,0.2
Indiana,Tipton County,40.3113,-86.0519,0.75,0.23,0.53,0.033,0.082,0.089,0.444,0.352,0.115,0.796,Republican,0.96,0,0.0201,58118,0.11,0.41,0.16,0.09
South Dakota,Lyman County,43.8958,-99.8474,0.65,0.33,0.32,0.13,0.046,0.119,0.287,0.419,0.176,0.706,Republican,0.56,0,0.0447,53862,0.1,0.37,0.16,0.05
Kansas,Russell County,38.9148,-98.7624,0.81,0.17,0.63,0.16,0.174,0.174,0.157,0.335,0.33399999999999996,0.492,Republican,0.95,0.02,0.0385,44792,0.12,0.27,0.14,0.09
Virginia,Orange County,38.2462,-78.0137,0.6,0.39,0.21,0.033,0.132,0.038,0.153,0.643,0.165,0.796,Republican,0.81,0.13,0.0358,71548,0.11,0.35,0.16,0.09
Wisconsin,Dodge County,43.4163,-88.7075,0.65,0.34,0.31,0.11,0.138,0.166,0.2,0.386,0.248,0.5860000000000001,Republican,0.94,0.03,0.0265,60652,0.09,0.41,0.12,0.05
Colorado,Morgan County,40.2626,-103.8097,0.7,0.28,0.42,0.083,0.161,0.116,0.245,0.396,0.244,0.641,Republican,0.89,0.04,0.0264,53682,0.21,0.31,0.11,0.06
California,San Mateo County,37.4229,-122.329,0.2,0.78,-0.58,0.016,0.013,0.058,0.126,0.786,0.028999999999999998,0.912,Democrat,0.51,0.02,0.0257,122641,0.1,0.15,0.29,0.22
Michigan,Kalamazoo County,42.2455,-85.5312,0.4,0.58,-0.19,0.02,0.059,0.062,0.167,0.693,0.079,0.86,Democrat,0.81,0.11,0.0368,56511,0.06,0.22,0.23,0.16
Louisiana,Caddo Parish,32.5801,-93.8823,0.46,0.53,-0.07,0.058,0.079,0.158,0.209,0.497,0.137,0.706,Democrat,0.46,0.49,0.0387,41797,0.13,0.34,0.15,0.09
Tennessee,Johnson County,36.4549,-81.8518,0.83,0.16,0.67,0.107,0.079,0.141,0.261,0.412,0.186,0.673,Republican,0.94,0.03,0.0165,36004,0.2,0.42,0.08,0.04
Michigan,Otsego County,45.0214,-84.599,0.66,0.32,0.34,0.06,0.068,0.097,0.172,0.602,0.128,0.774,Republican,0.96,0.01,0.0331,54332,0.08,0.33,0.15,0.08
Minnesota,Murray County,44.0222,-95.7633,0.69,0.3,0.39,0.131,0.071,0.224,0.27,0.303,0.202,0.573,Republican,0.96,0,0.0182,60231,0.1,0.36,0.15,0.06
Nebraska,Saunders County,41.2264,-96.6374,0.71,0.26,0.45,0.108,0.09,0.28,0.223,0.3,0.198,0.523,Republican,0.97,0,0.0154,68682,0.07,0.31,0.18,0.07
Utah,Salt Lake County,40.6673,-111.9236,0.43,0.54,-0.11,0.028,0.032,0.094,0.202,0.644,0.06,0.8460000000000001,Democrat,0.79,0.02,0.0253,74865,0.09,0.23,0.23,0.13
Ohio,Tuscarawas County,40.4409,-81.4738,0.69,0.29,0.4,0.126,0.204,0.116,0.215,0.339,0.32999999999999996,0.554,Republican,0.97,0.01,0.0262,53243,0.14,0.45,0.11,0.06
Arkansas,Carroll County,36.341,-93.5382,0.63,0.34,0.29,0.111,0.068,0.115,0.129,0.577,0.179,0.706,Republican,0.92,0.01,0.0203,46110,0.14,0.36,0.14,0.07
Georgia,DeKalb County,33.7715,-84.2264,0.16,0.83,-0.67,0.036,0.028,0.075,0.156,0.704,0.064,0.86,Democrat,0.34,0.54,0.0444,62399,0.11,0.21,0.25,0.19
Georgia,Tift County,31.4574,-83.5266,0.66,0.33,0.34,0.066,0.088,0.122,0.227,0.496,0.154,0.723,Republican,0.64,0.3,0.0162,45639,0.18,0.35,0.1,0.08
Maryland,Garrett County,39.5289,-79.2729,0.77,0.21,0.56,0.077,0.008,0.04,0.305,0.571,0.08499999999999999,0.8759999999999999,Republican,0.97,0.01,0.0224,52617,0.1,0.43,0.12,0.09
Kentucky,Green County,37.264,-85.5531,0.83,0.16,0.67,0.063,0.076,0.127,0.247,0.488,0.139,0.735,Republican,0.95,0.03,0.022,35899,0.25,0.38,0.07,0.06
Maine,Kennebec County,44.4091,-69.7673,0.48,0.49,-0,0.016,0.074,0.125,0.245,0.54,0.09,0.785,Democrat,0.96,0.01,0.0245,55365,0.07,0.33,0.17,0.11
Kentucky,Hart County,37.2999,-85.8847,0.76,0.23,0.53,0.053,0.034,0.118,0.185,0.61,0.087,0.7949999999999999,Republican,0.93,0.04,0.0306,38396,0.24,0.4,0.07,0.05
South Carolina,Richland County,34.0218,-80.9031,0.3,0.68,-0.38,0.03,0.016,0.099,0.235,0.62,0.046,0.855,Democrat,0.45,0.47,0.0406,54767,0.09,0.22,0.23,0.16
California,Inyo County,36.5111,-117.4107,0.49,0.49,-0,0.033,0.011,0.008,0.058,0.889,0.044,0.9470000000000001,Democrat,0.79,0.01,0.0241,57316,0.11,0.29,0.17,0.1
Texas,Oldham County,35.405,-102.6028,0.91,0.08,0.83,0.084,0.065,0.109,0.278,0.464,0.14900000000000002,0.742,Republican,0.92,0.03,0.0088,64545,0.1,0.37,0.15,0.07
Kentucky,Hickman County,36.6781,-88.9762,0.78,0.21,0.57,0.097,0.065,0.221,0.202,0.415,0.162,0.617,Republican,0.87,0.08,0.0319,42929,0.2,0.42,0.11,0.05
North Carolina,Sampson County,34.9915,-78.3714,0.61,0.38,0.23,0.006,0.005,0.084,0.197,0.708,0.011,0.905,Republican,0.63,0.25,0.0408,42151,0.21,0.34,0.1,0.04
Alabama,Chilton County,32.8479,-86.7188,0.83,0.16,0.67,0.06,0.07,0.058,0.194,0.618,0.13,0.812,Republican,0.84,0.09,0.0345,47468,0.18,0.44,0.08,0.05
Arkansas,Jefferson County,34.2688,-91.9315,0.38,0.6,-0.22,0.042,0.036,0.172,0.173,0.577,0.078,0.75,Democrat,0.4,0.57,0.0471,40726,0.14,0.39,0.12,0.06
Minnesota,Aitkin County,46.6082,-93.4154,0.62,0.36,0.26,0.187,0.115,0.075,0.247,0.375,0.302,0.622,Republican,0.95,0.01,0.0242,49351,0.09,0.37,0.13,0.05
Mississippi,Lowndes County,33.4729,-88.4433,0.51,0.48,0.03,0.018,0.052,0.148,0.193,0.59,0.06999999999999999,0.7829999999999999,Republican,0.53,0.44,0.0457,50441,0.14,0.32,0.15,0.09
Virginia,Lee County,36.7054,-83.1286,0.84,0.15,0.69,0.107,0.135,0.072,0.104,0.582,0.242,0.6859999999999999,Republican,0.94,0.04,0.0389,32888,0.23,0.34,0.08,0.03
Michigan,Monroe County,41.9287,-83.5375,0.6,0.38,0.23,0.066,0.035,0.054,0.183,0.663,0.101,0.8460000000000001,Republican,0.94,0.02,0.029,62203,0.09,0.35,0.14,0.07
Texas,Llano County,30.7057,-98.6841,0.8,0.19,0.6,0.08,0.036,0.056,0.214,0.615,0.11599999999999999,0.829,Republican,0.92,0.01,0.0332,53411,0.14,0.26,0.18,0.07
New York,Saratoga County,43.1074,-73.8639,0.46,0.52,-0.05,0.02,0.012,0.062,0.156,0.751,0.032,0.907,Democrat,0.93,0.02,0.0229,84291,0.06,0.25,0.24,0.18
Indiana,Brown County,39.1962,-86.2274,0.64,0.34,0.31,0.055,0.061,0.041,0.184,0.66,0.11599999999999999,0.8440000000000001,Republican,0.97,0.01,0.026,61030,0.08,0.33,0.17,0.12
Montana,Petroleum County,47.1175,-108.2502,0.85,0.11,0.74,0.157,0.154,0.174,0.247,0.269,0.311,0.516,Republican,0.94,0,0.0243,51250,0.01,0.39,0.26,0.06
Washington,Pierce County,47.0241,-122.1046,0.43,0.54,-0.11,0.028,0.057,0.103,0.206,0.606,0.085,0.8119999999999999,Democrat,0.73,0.07,0.033,72113,0.08,0.27,0.18,0.09
Montana,Sanders County,47.6748,-115.1333,0.74,0.24,0.5,0.15,0.204,0.191,0.172,0.283,0.354,0.45499999999999996,Republican,0.92,0,0.0255,40823,0.11,0.42,0.14,0.04
Indiana,Steuben County,41.6439,-85.0009,0.7,0.28,0.42,0.04,0.089,0.17,0.169,0.532,0.129,0.7010000000000001,Republican,0.96,0,0.0208,58279,0.09,0.4,0.14,0.08
Kentucky,Trigg County,36.8064,-87.8734,0.74,0.24,0.5,0.066,0.053,0.131,0.152,0.597,0.119,0.749,Republican,0.9,0.07,0.0494,50536,0.12,0.33,0.11,0.06
Ohio,Miami County,40.0535,-84.2289,0.71,0.27,0.44,0.077,0.07,0.19,0.227,0.436,0.14700000000000002,0.663,Republican,0.94,0.02,0.0309,61041,0.09,0.37,0.14,0.09
Pennsylvania,McKean County,41.8077,-78.569,0.72,0.26,0.46,0.012,0.004,0.03,0.134,0.82,0.016,0.954,Republican,0.95,0.03,0.0342,48647,0.08,0.48,0.12,0.07
Oklahoma,Bryan County,33.9623,-96.2598,0.77,0.21,0.56,0.094,0.087,0.125,0.237,0.457,0.181,0.694,Republican,0.74,0.02,0.0317,44212,0.14,0.33,0.14,0.08
Pennsylvania,Susquehanna County,41.8214,-75.8007,0.7,0.29,0.41,0.046,0.029,0.038,0.065,0.822,0.075,0.887,Republican,0.97,0.01,0.0351,54966,0.1,0.45,0.12,0.07
Michigan,Luce County,46.4707,-85.5444,0.7,0.28,0.42,0.028,0.03,0.088,0.237,0.617,0.057999999999999996,0.854,Republican,0.8,0.07,0.0261,45469,0.12,0.37,0.12,0.06
Virginia,Isle of Wight County,36.8913,-76.7258,0.58,0.4,0.18,0.039,0.055,0.059,0.277,0.569,0.094,0.846,Republican,0.72,0.23,0.0404,73991,0.12,0.28,0.16,0.11
Indiana,Johnson County,39.49,-86.1016,0.66,0.32,0.34,0.057,0.094,0.1,0.192,0.557,0.151,0.7490000000000001,Republican,0.91,0.02,0.0227,72440,0.08,0.31,0.22,0.11
Oklahoma,Adair County,35.8839,-94.6587,0.79,0.2,0.59,0.105,0.068,0.258,0.213,0.356,0.173,0.569,Republican,0.42,0,0.0242,34695,0.19,0.47,0.09,0.03
Kentucky,Owen County,38.5197,-84.8281,0.79,0.2,0.59,0.091,0.039,0.114,0.198,0.558,0.13,0.756,Republican,0.99,0.01,0.0194,48801,0.21,0.46,0.08,0.03
Arkansas,Ashley County,33.1912,-91.7685,0.7,0.27,0.43,0.023,0.103,0.163,0.117,0.595,0.126,0.712,Republican,0.72,0.25,0.0279,44744,0.17,0.44,0.09,0.04
Nebraska,Cedar County,42.5993,-97.2524,0.83,0.14,0.69,0.207,0.163,0.161,0.177,0.293,0.37,0.47,Republican,0.97,0,0.0074,61869,0.08,0.35,0.15,0.06
Tennessee,Trousdale County,36.3921,-86.1568,0.73,0.25,0.48,0.112,0.063,0.241,0.133,0.452,0.175,0.585,Republican,0.85,0.1,0.0361,56321,0.16,0.38,0.09,0.04
Georgia,Hall County,34.3169,-83.8197,0.71,0.28,0.43,0.061,0.069,0.128,0.198,0.545,0.13,0.7430000000000001,Republican,0.86,0.07,0.0227,62984,0.21,0.28,0.15,0.09
North Carolina,Madison County,35.858,-82.7058,0.61,0.37,0.24,0.016,0.034,0.08,0.178,0.692,0.05,0.8699999999999999,Republican,0.95,0.02,0.0249,45873,0.13,0.31,0.17,0.11
West Virginia,Berkeley County,39.4641,-78.0275,0.65,0.33,0.31,0.065,0.049,0.196,0.166,0.524,0.114,0.6900000000000001,Republican,0.87,0.08,0.0388,62515,0.11,0.38,0.14,0.08
Missouri,Marion County,39.8059,-91.6224,0.74,0.24,0.5,0.178,0.093,0.212,0.185,0.332,0.271,0.517,Republican,0.92,0.04,0.0277,48784,0.12,0.37,0.15,0.08
New York,Orleans County,43.2521,-78.2312,0.67,0.31,0.36,0.001,0.033,0.059,0.213,0.693,0.034,0.9059999999999999,Republican,0.89,0.06,0.0299,52620,0.12,0.38,0.1,0.06
Kansas,Jewell County,39.7847,-98.2183,0.85,0.13,0.72,0.171,0.142,0.087,0.259,0.34,0.313,0.599,Republican,0.96,0,0.0113,40676,0.07,0.4,0.14,0.06
Massachusetts,Berkshire County,42.3707,-73.2064,0.25,0.72,-0.47,0.03,0.004,0.049,0.082,0.834,0.034,0.9159999999999999,Democrat,0.91,0.03,0.0298,59230,0.09,0.29,0.19,0.15
North Dakota,Golden Valley County,46.9402,-103.8466,0.85,0.13,0.72,0.187,0.206,0.149,0.256,0.203,0.393,0.459,Republican,0.93,0,0.0199,58690,0.07,0.25,0.23,0.04
North Carolina,Greene County,35.485,-77.6758,0.56,0.44,0.12,0.072,0.061,0.127,0.24,0.501,0.133,0.741,Republican,0.6,0.35,0.0394,39837,0.25,0.33,0.09,0.02
Nevada,Elko County,41.1458,-115.3577,0.76,0.21,0.55,0.021,0.046,0.19,0.364,0.379,0.067,0.743,Republican,0.86,0.01,0.0324,81232,0.14,0.33,0.1,0.06
Georgia,Randolph County,31.7626,-84.7542,0.45,0.54,-0.09,0.016,0.065,0.05,0.2,0.669,0.081,0.869,Democrat,0.35,0.62,0.0379,31699,0.25,0.36,0.07,0.03
Idaho,Shoshone County,47.3529,-115.8924,0.7,0.28,0.42,0.068,0.144,0.299,0.147,0.342,0.212,0.489,Republican,0.94,0,0.0429,39386,0.14,0.37,0.07,0.04
Georgia,Bartow County,34.2377,-84.8403,0.75,0.24,0.51,0.215,0.05,0.123,0.143,0.47,0.265,0.613,Republican,0.84,0.1,0.029,57423,0.16,0.33,0.13,0.06
Iowa,Chickasaw County,43.0601,-92.3177,0.65,0.34,0.31,0.075,0.136,0.197,0.236,0.356,0.21100000000000002,0.592,Republican,0.98,0.01,0.0116,60034,0.07,0.44,0.13,0.04
Missouri,Worth County,40.4791,-94.4221,0.79,0.19,0.6,0.098,0.17,0.218,0.272,0.241,0.268,0.513,Republican,0.98,0.01,0.0211,53580,0.1,0.44,0.13,0.07
Texas,Bailey County,34.068600000000004,-102.8299,0.77,0.22,0.55,0.018,0.106,0.06,0.217,0.598,0.124,0.815,Republican,0.84,0.01,0.0157,52273,0.23,0.35,0.13,0.04
Texas,San Patricio County,28.0091,-97.5186,0.64,0.35,0.29,0.015,0.02,0.053,0.074,0.838,0.035,0.9119999999999999,Republican,0.92,0.02,0.0301,56556,0.2,0.33,0.11,0.04
Indiana,Wells County,40.7292,-85.2212,0.77,0.21,0.56,0.205,0.05,0.077,0.337,0.332,0.255,0.669,Republican,0.96,0.01,0.0186,59237,0.08,0.4,0.12,0.06
Texas,Falls County,31.2533,-96.9359,0.68,0.31,0.37,0.009,0.029,0.061,0.187,0.715,0.038,0.9019999999999999,Republican,0.72,0.25,0.0221,39497,0.23,0.38,0.1,0.03
Iowa,Buchanan County,42.4708,-91.8379,0.6,0.39,0.21,0.021,0.124,0.087,0.394,0.373,0.145,0.767,Republican,0.97,0,0.0149,64837,0.06,0.39,0.15,0.06
West Virginia,Mercer County,37.4055,-81.1114,0.77,0.22,0.54,0.076,0.152,0.174,0.103,0.495,0.22799999999999998,0.598,Republican,0.91,0.06,0.0356,40784,0.17,0.39,0.13,0.07
Alabama,Conecuh County,31.4292,-86.9937,0.53,0.46,0.07,0.099,0.052,0.259,0.192,0.399,0.151,0.591,Republican,0.51,0.48,0.0427,37837,0.16,0.51,0.08,0.05
New Jersey,Ocean County,39.8855,-74.2813,0.64,0.35,0.29,0.012,0.056,0.055,0.104,0.772,0.068,0.876,Republican,0.91,0.03,0.03,70909,0.08,0.34,0.2,0.1
Tennessee,Montgomery County,36.4969,-87.3828,0.55,0.42,0.13,0.083,0.063,0.203,0.228,0.423,0.14600000000000002,0.651,Republican,0.71,0.2,0.0381,57541,0.07,0.28,0.19,0.1
Arkansas,Logan County,35.2153,-93.7162,0.78,0.19,0.6,0.148,0.11,0.12,0.143,0.479,0.258,0.622,Republican,0.92,0.01,0.0343,41466,0.14,0.45,0.09,0.05
Tennessee,Smith County,36.2505,-85.9567,0.79,0.2,0.59,0.088,0.091,0.202,0.113,0.507,0.179,0.62,Republican,0.93,0.03,0.0192,48068,0.15,0.47,0.09,0.05
North Carolina,Stokes County,36.4019,-80.2395,0.78,0.21,0.58,0.015,0.034,0.116,0.247,0.588,0.049,0.835,Republican,0.93,0.04,0.0355,48054,0.16,0.4,0.11,0.04
Georgia,Pierce County,31.3588,-82.2128,0.87,0.12,0.75,0.05,0.143,0.127,0.157,0.522,0.193,0.679,Republican,0.86,0.09,0.0348,42804,0.17,0.43,0.07,0.06
Wisconsin,St. Croix County,45.0341,-92.4528,0.57,0.41,0.16,0.101,0.102,0.085,0.342,0.37,0.203,0.712,Republican,0.96,0.01,0.0148,84756,0.04,0.25,0.25,0.11
Kansas,Linn County,38.2123,-94.843,0.8,0.18,0.63,0.14,0.053,0.121,0.285,0.4,0.193,0.685,Republican,0.96,0.01,0.0237,48778,0.1,0.39,0.11,0.05
Alabama,Lowndes County,32.1547,-86.6501,0.27,0.73,-0.46,0.12,0.073,0.145,0.199,0.464,0.193,0.663,Democrat,0.25,0.75,0.0469,30036,0.22,0.4,0.09,0.05
Kansas,Hamilton County,37.9991,-101.7912,0.82,0.16,0.66,0.131,0.095,0.189,0.217,0.368,0.226,0.585,Republican,0.91,0.05,0.0046,46944,0.19,0.4,0.16,0.03
Texas,Gillespie County,30.318,-98.9466,0.79,0.2,0.59,0.095,0.091,0.107,0.114,0.592,0.186,0.706,Republican,0.91,0,0.0247,59155,0.11,0.3,0.23,0.09
Ohio,Brown County,38.934,-83.8674,0.78,0.21,0.57,0.177,0.177,0.101,0.128,0.417,0.354,0.5449999999999999,Republican,0.97,0.01,0.029,54575,0.12,0.46,0.1,0.05
Georgia,McDuffie County,33.4829,-82.4814,0.59,0.4,0.19,0.072,0.053,0.123,0.265,0.488,0.125,0.753,Republican,0.54,0.4,0.0387,43468,0.17,0.42,0.09,0.05
Iowa,Delaware County,42.4712,-91.3673,0.67,0.32,0.35,0.035,0.137,0.137,0.408,0.283,0.17200000000000001,0.691,Republican,0.98,0,0.0138,63750,0.08,0.43,0.12,0.05
Virginia,Appomattox County,37.3723,-78.8126,0.72,0.26,0.46,0.063,0.018,0.105,0.204,0.61,0.081,0.814,Republican,0.78,0.2,0.0191,58696,0.14,0.34,0.14,0.07
North Carolina,Caldwell County,35.953,-81.5464,0.75,0.24,0.51,0.028,0.031,0.072,0.199,0.67,0.059,0.869,Republican,0.89,0.05,0.037,44511,0.2,0.32,0.11,0.05
Texas,Shackelford County,32.7359,-99.3541,0.91,0.08,0.83,0.061,0.099,0.14,0.183,0.518,0.16,0.7010000000000001,Republican,0.96,0,0.0321,46935,0.14,0.22,0.22,0.08
Missouri,Lawrence County,37.1064,-93.833,0.81,0.18,0.63,0.241,0.05,0.251,0.222,0.237,0.291,0.45899999999999996,Republican,0.95,0,0.0376,44742,0.15,0.39,0.11,0.05
Minnesota,Sibley County,44.5795,-94.2321,0.69,0.29,0.41,0.04,0.175,0.172,0.38,0.233,0.215,0.613,Republican,0.95,0.01,0.019,63439,0.09,0.39,0.13,0.04
Louisiana,Richland Parish,32.4178,-91.7635,0.66,0.32,0.34,0.066,0.08,0.126,0.194,0.534,0.14600000000000002,0.728,Republican,0.62,0.36,0.0277,34029,0.22,0.41,0.07,0.06
North Carolina,Buncombe County,35.6112,-82.5301,0.39,0.6,-0.21,0.009,0.023,0.044,0.23,0.693,0.032,0.9229999999999999,Democrat,0.89,0.06,0.0199,52207,0.09,0.23,0.25,0.15
Texas,Willacy County,26.4696,-97.6611,0.44,0.56,-0.12,0.034,0.015,0.067,0.064,0.82,0.049,0.8839999999999999,Democrat,0.97,0.01,0.0726,35521,0.34,0.36,0.07,0.02
Indiana,Union County,39.6256,-84.9251,0.77,0.21,0.56,0.095,0.053,0.106,0.178,0.569,0.148,0.7469999999999999,Republican,0.97,0,0.0087,50375,0.13,0.43,0.12,0.07
Texas,Cottle County,34.0776,-100.2788,0.82,0.17,0.65,0.107,0.106,0.188,0.176,0.423,0.213,0.599,Republican,0.7,0.14,0.0504,32305,0.24,0.27,0.11,0.06
Louisiana,St. Helena Parish,30.822,-90.7103,0.44,0.54,-0.1,0.064,0.126,0.138,0.237,0.434,0.19,0.671,Democrat,0.46,0.53,0.0937,43886,0.22,0.38,0.1,0.07
Indiana,Martin County,38.708,-86.8031,0.78,0.2,0.59,0.041,0.064,0.123,0.223,0.55,0.10500000000000001,0.773,Republican,0.98,0.01,0.015,52726,0.12,0.43,0.09,0.05
Arkansas,Cleveland County,33.8984,-92.1852,0.8,0.18,0.62,0.107,0.03,0.16,0.231,0.472,0.137,0.703,Republican,0.86,0.13,0.0274,46684,0.1,0.47,0.11,0.05
Louisiana,West Carroll Parish,32.7885,-91.4568,0.85,0.14,0.71,0.022,0.063,0.124,0.114,0.677,0.08499999999999999,0.791,Republican,0.8,0.16,0.0485,38500,0.21,0.46,0.08,0.04
Missouri,Ray County,39.3524,-93.9899,0.72,0.27,0.45,0.073,0.124,0.233,0.184,0.386,0.197,0.5700000000000001,Republican,0.96,0.01,0.0224,61957,0.12,0.45,0.1,0.04
Virginia,Patrick County,36.6783,-80.2844,0.79,0.2,0.58,0.042,0.098,0.166,0.203,0.491,0.14,0.694,Republican,0.92,0.06,0.0269,43073,0.2,0.35,0.09,0.06
Minnesota,Pine County,46.1207,-92.7413,0.64,0.34,0.3,0.178,0.143,0.074,0.242,0.364,0.32099999999999995,0.606,Republican,0.91,0.02,0.0268,53422,0.1,0.41,0.1,0.05
Missouri,Linn County,39.8702,-93.1072,0.76,0.22,0.54,0.126,0.156,0.118,0.274,0.326,0.28200000000000003,0.6000000000000001,Republican,0.97,0,0.0115,45930,0.11,0.46,0.11,0.06
Michigan,Branch County,41.9161,-85.059,0.68,0.3,0.38,0.072,0.091,0.205,0.234,0.399,0.16299999999999998,0.633,Republican,0.94,0.02,0.0237,51947,0.11,0.42,0.1,0.04
Illinois,Lee County,41.7461,-89.3003,0.59,0.39,0.2,0.013,0.054,0.058,0.224,0.65,0.067,0.874,Republican,0.91,0.05,0.0197,58194,0.11,0.34,0.11,0.07
Ohio,Washington County,39.4553,-81.4953,0.7,0.29,0.41,0.072,0.121,0.142,0.29,0.375,0.193,0.665,Republican,0.96,0.01,0.0227,50021,0.09,0.4,0.12,0.07
New Mexico,Luna County,32.1822,-107.7498,0.54,0.44,0.1,0.105,0.046,0.024,0.11,0.715,0.151,0.825,Republican,0.92,0.02,0.0558,29360,0.3,0.34,0.08,0.05
New York,Montgomery County,42.9023,-74.4397,0.6,0.38,0.23,0.102,0.005,0.054,0.09,0.749,0.107,0.839,Republican,0.87,0.02,0.0391,49462,0.13,0.35,0.1,0.07
Indiana,Sullivan County,39.0888,-87.4147,0.74,0.24,0.5,0.127,0.071,0.077,0.207,0.517,0.198,0.724,Republican,0.93,0.04,0.0257,50245,0.11,0.44,0.08,0.04
Kansas,Pottawatomie County,39.379,-96.3424,0.72,0.25,0.47,0.012,0.057,0.145,0.236,0.55,0.069,0.786,Republican,0.94,0.01,0.0192,66835,0.06,0.29,0.22,0.12
North Carolina,Dare County,35.7795,-75.798,0.58,0.41,0.17,0.028,0.005,0.102,0.194,0.671,0.033,0.865,Republican,0.93,0.03,0.0279,59381,0.06,0.23,0.22,0.13
Montana,Wheatland County,46.4663,-109.8446,0.77,0.21,0.56,0.214,0.135,0.144,0.189,0.318,0.349,0.507,Republican,0.94,0,0.0186,39655,0.18,0.34,0.14,0.05
Kansas,Ford County,37.6917,-99.888,0.65,0.33,0.32,0.143,0.084,0.143,0.232,0.399,0.22699999999999998,0.631,Republican,0.89,0.02,0.0411,51711,0.26,0.25,0.11,0.06
Virginia,Henrico County,37.538,-77.4058,0.35,0.64,-0.29,0.04,0.037,0.071,0.191,0.662,0.077,0.853,Democrat,0.56,0.3,0.0309,70307,0.08,0.21,0.26,0.17
California,Solano County,38.27,-121.9329,0.34,0.64,-0.3,0.043,0.046,0.035,0.148,0.728,0.089,0.876,Democrat,0.53,0.14,0.0373,81472,0.12,0.24,0.19,0.08
North Dakota,Towner County,48.6855,-99.2457,0.71,0.27,0.44,0.263,0.232,0.127,0.198,0.18,0.495,0.378,Republican,0.92,0.01,0.0197,52300,0.09,0.34,0.14,0.03
California,Los Angeles County,34.3207,-118.2248,0.27,0.71,-0.44,0.021,0.013,0.049,0.131,0.786,0.034,0.917,Democrat,0.51,0.08,0.0393,68044,0.21,0.21,0.21,0.11
Illinois,Jefferson County,38.3005,-88.924,0.72,0.26,0.45,0.122,0.126,0.08,0.279,0.393,0.248,0.672,Republican,0.87,0.08,0.0409,49896,0.13,0.31,0.11,0.07
Oregon,Morrow County,45.4189,-119.5844,0.7,0.27,0.43,0.026,0.004,0.083,0.197,0.69,0.03,0.887,Republican,0.9,0,0.03,54269,0.24,0.33,0.06,0.03
North Carolina,Scotland County,34.8409,-79.4804,0.51,0.49,0.02,0.137,0.029,0.178,0.199,0.458,0.166,0.657,Republican,0.44,0.39,0.0586,37238,0.2,0.34,0.1,0.06
West Virginia,Webster County,38.4947,-80.4219,0.81,0.18,0.63,0.065,0.083,0.163,0.211,0.479,0.14800000000000002,0.69,Republican,1,0,0.0505,34927,0.21,0.5,0.05,0.06
Arkansas,Poinsett County,35.574,-90.663,0.79,0.19,0.6,0.077,0.098,0.141,0.287,0.397,0.175,0.6839999999999999,Republican,0.88,0.05,0.0321,40921,0.2,0.43,0.08,0.03
Michigan,Berrien County,41.9547,-86.4123,0.53,0.45,0.07,0.039,0.037,0.122,0.247,0.555,0.076,0.802,Republican,0.79,0.15,0.0364,50795,0.1,0.28,0.17,0.11
South Dakota,Stanley County,44.4123,-100.7359,0.73,0.25,0.47,0.08,0.024,0.104,0.245,0.546,0.10400000000000001,0.791,Republican,0.91,0,0.0038,71382,0.05,0.31,0.17,0.16
Texas,Swisher County,34.5304,-101.735,0.78,0.2,0.58,0.084,0.075,0.053,0.255,0.532,0.159,0.787,Republican,0.84,0.06,0.0294,39771,0.27,0.3,0.11,0.05
North Carolina,Beaufort County,35.494,-76.8598,0.62,0.37,0.26,0.037,0.08,0.041,0.219,0.623,0.11699999999999999,0.842,Republican,0.72,0.25,0.038,45212,0.12,0.33,0.13,0.08
Wisconsin,Green Lake County,43.8004,-89.0449,0.67,0.31,0.36,0.092,0.122,0.184,0.117,0.486,0.214,0.603,Republican,0.96,0.01,0.0193,55075,0.1,0.39,0.14,0.06
Florida,Calhoun County,30.406,-85.1972,0.81,0.19,0.62,0.034,0.055,0.138,0.267,0.507,0.089,0.774,Republican,0.8,0.13,0.0257,38568,0.23,0.42,0.07,0.02
Maryland,Prince George's County,38.8295,-76.8473,0.09,0.89,-0.81,0.087,0.034,0.064,0.094,0.72,0.121,0.814,Democrat,0.17,0.63,0.0426,84920,0.13,0.26,0.19,0.14
West Virginia,Wirt County,39.0224,-81.3787,0.8,0.18,0.63,0.112,0.059,0.219,0.222,0.389,0.17099999999999999,0.611,Republican,0.99,0,0.0229,46048,0.17,0.42,0.06,0.05
Oregon,Lane County,43.9388,-122.8475,0.36,0.6,-0.24,0.031,0.036,0.077,0.137,0.719,0.067,0.856,Democrat,0.87,0.01,0.0412,52426,0.08,0.23,0.18,0.12
Oregon,Curry County,42.4576,-124.1568,0.57,0.41,0.16,0.025,0.058,0.1,0.162,0.655,0.083,0.8170000000000001,Republican,0.91,0,0.0347,48440,0.1,0.27,0.15,0.1
Texas,Hidalgo County,26.3969,-98.1812,0.41,0.58,-0.17,0.055,0.003,0.033,0.084,0.826,0.058,0.9099999999999999,Democrat,0.86,0.01,0.0403,40014,0.34,0.23,0.13,0.06
Arkansas,Pope County,35.4476,-93.0342,0.74,0.24,0.5,0.082,0.151,0.181,0.285,0.302,0.23299999999999998,0.587,Republican,0.91,0.03,0.0359,43462,0.16,0.35,0.15,0.08
Oregon,Douglas County,43.2797,-123.1665,0.67,0.3,0.38,0.082,0.052,0.116,0.239,0.511,0.134,0.75,Republican,0.92,0,0.0339,47267,0.1,0.32,0.11,0.06
Florida,Columbia County,30.2242,-82.6215,0.72,0.27,0.45,0.047,0.026,0.288,0.254,0.385,0.073,0.639,Republican,0.77,0.18,0.0444,46494,0.14,0.37,0.1,0.05
Mississippi,Amite County,31.1744,-90.8044,0.62,0.36,0.26,0.11,0.092,0.122,0.204,0.473,0.202,0.6769999999999999,Republican,0.57,0.42,0.0402,33981,0.18,0.39,0.08,0.05
Iowa,Clinton County,41.898,-90.532,0.54,0.44,0.1,0.092,0.13,0.079,0.269,0.43,0.222,0.6990000000000001,Republican,0.94,0.03,0.0282,51688,0.09,0.39,0.12,0.06
Michigan,St. Joseph County,41.9144,-85.5278,0.65,0.33,0.32,0.048,0.079,0.197,0.189,0.488,0.127,0.677,Republican,0.92,0.02,0.0274,52086,0.13,0.37,0.1,0.06
Kentucky,Whitley County,36.7581,-84.1452,0.82,0.17,0.65,0.176,0.062,0.113,0.174,0.476,0.238,0.6499999999999999,Republican,0.97,0.01,0.0314,39005,0.19,0.37,0.1,0.1
Texas,Potter County,35.4013,-101.8939,0.68,0.3,0.39,0.067,0.063,0.113,0.272,0.485,0.13,0.757,Republican,0.78,0.1,0.0205,42528,0.23,0.32,0.1,0.05
California,San Luis Obispo County,35.3871,-120.4045,0.42,0.55,-0.13,0.025,0.024,0.037,0.169,0.745,0.049,0.914,Democrat,0.85,0.02,0.0233,73518,0.09,0.2,0.22,0.13
Texas,Bell County,31.0377,-97.4782,0.53,0.45,0.09,0.01,0.035,0.078,0.205,0.672,0.045000000000000005,0.877,Republican,0.63,0.24,0.0445,54884,0.09,0.26,0.16,0.09
Iowa,Humboldt County,42.7765,-94.2072,0.72,0.27,0.45,0.243,0.268,0.147,0.102,0.24,0.511,0.34199999999999997,Republican,0.97,0,0.0262,54575,0.07,0.37,0.17,0.04
Washington,Grays Harbor County,47.1503,-123.7735,0.52,0.45,0.07,0.03,0.009,0.087,0.213,0.662,0.039,0.875,Republican,0.88,0.01,0.0363,51240,0.1,0.34,0.11,0.06
Colorado,Rio Grande County,37.5825,-106.3832,0.58,0.4,0.18,0.061,0.144,0.11,0.242,0.444,0.205,0.6859999999999999,Republican,0.92,0.01,0.0482,39123,0.13,0.32,0.17,0.07
Washington,Grant County,47.2057,-119.4518,0.66,0.31,0.34,0.032,0.052,0.108,0.146,0.661,0.08399999999999999,0.807,Republican,0.69,0.01,0.0383,55556,0.23,0.27,0.12,0.05
Tennessee,Rhea County,35.6087,-84.9244,0.81,0.17,0.64,0.096,0.154,0.113,0.154,0.483,0.25,0.637,Republican,0.94,0.02,0.0471,42206,0.19,0.37,0.11,0.06
Missouri,Newton County,36.9055,-94.3393,0.78,0.2,0.57,0.156,0.121,0.14,0.211,0.373,0.277,0.584,Republican,0.9,0.01,0.0233,50813,0.13,0.35,0.13,0.07
Georgia,Warren County,33.4089,-82.6768,0.44,0.55,-0.11,0.095,0.065,0.14,0.226,0.474,0.16,0.7,Democrat,0.37,0.61,0.0249,37203,0.27,0.4,0.08,0.04
Mississippi,Humphreys County,33.1287,-90.5266,0.27,0.72,-0.45,0.117,0.071,0.098,0.104,0.61,0.188,0.714,Democrat,0.21,0.76,0.0746,28962,0.3,0.34,0.07,0.06
New Jersey,Hunterdon County,40.5673,-74.9122,0.51,0.47,0.04,0.007,0.038,0.065,0.085,0.804,0.045,0.889,Republican,0.91,0.03,0.0255,115379,0.05,0.21,0.31,0.21
Texas,Runnels County,31.8311,-99.9762,0.86,0.13,0.74,0.033,0.039,0.104,0.228,0.596,0.07200000000000001,0.824,Republican,0.93,0.03,0.0139,44940,0.21,0.35,0.14,0.04
Colorado,Las Animas County,37.3158,-104.0386,0.54,0.44,0.1,0.052,0.03,0.101,0.17,0.648,0.08199999999999999,0.8180000000000001,Republican,0.85,0.01,0.0425,41817,0.12,0.29,0.12,0.07
Iowa,Dickinson County,43.3779,-95.1509,0.66,0.33,0.34,0.276,0.027,0.091,0.173,0.433,0.30300000000000005,0.606,Republican,0.97,0,0.0128,59969,0.04,0.26,0.25,0.09
Georgia,Telfair County,31.9298,-82.939,0.65,0.34,0.31,0.156,0.075,0.134,0.208,0.427,0.23099999999999998,0.635,Republican,0.52,0.41,0.0075,32405,0.3,0.47,0.04,0.04
Kansas,Lane County,38.4813,-100.4664,0.85,0.13,0.72,0.197,0.075,0.197,0.204,0.326,0.272,0.53,Republican,0.97,0,0.0184,52125,0.06,0.32,0.16,0.07
Oklahoma,Johnston County,34.3165,-96.6606,0.81,0.17,0.64,0.088,0.137,0.157,0.244,0.374,0.225,0.618,Republican,0.72,0.02,0.0407,41332,0.14,0.35,0.13,0.08
Georgia,Sumter County,32.0399,-84.197,0.47,0.52,-0.05,0.055,0.056,0.046,0.202,0.641,0.111,0.843,Democrat,0.43,0.52,0.046,36681,0.19,0.35,0.11,0.08
Mississippi,Attala County,33.0863,-89.5815,0.59,0.4,0.19,0.065,0.104,0.092,0.139,0.601,0.16899999999999998,0.74,Republican,0.54,0.42,0.0526,33767,0.22,0.32,0.09,0.05
Nebraska,Dawes County,42.7197,-103.1354,0.71,0.26,0.45,0.224,0.103,0.11,0.321,0.242,0.327,0.563,Republican,0.9,0.04,0.0144,50750,0.04,0.26,0.19,0.18
Oregon,Union County,45.3102,-118.0088,0.69,0.28,0.4,0.034,0.088,0.086,0.189,0.603,0.122,0.792,Republican,0.92,0.01,0.0345,52171,0.07,0.32,0.17,0.08
Washington,Snohomish County,48.0475,-121.6975,0.38,0.59,-0.21,0.017,0.014,0.056,0.191,0.721,0.031,0.9119999999999999,Democrat,0.75,0.03,0.0273,86691,0.08,0.23,0.22,0.11
North Dakota,Slope County,46.4472,-103.4599,0.89,0.1,0.79,0.217,0.179,0.142,0.246,0.215,0.396,0.46099999999999997,Republican,0.96,0.02,0.0114,63611,0.1,0.28,0.21,0.05
Wisconsin,Sheboygan County,43.7212,-87.9454,0.57,0.41,0.16,0.128,0.114,0.174,0.199,0.385,0.242,0.5840000000000001,Republican,0.89,0.02,0.0207,60696,0.07,0.36,0.18,0.08
Georgia,Brantley County,31.1969,-81.9819,0.9,0.09,0.81,0.047,0.129,0.15,0.164,0.51,0.176,0.674,Republican,0.94,0.04,0.0282,38857,0.21,0.45,0.04,0.05
Michigan,Oakland County,42.6604,-83.3858,0.42,0.56,-0.14,0.028,0.027,0.049,0.169,0.727,0.055,0.896,Democrat,0.75,0.14,0.029,79698,0.06,0.19,0.27,0.2
Louisiana,Beauregard Parish,30.6484,-93.3434,0.83,0.16,0.67,0.086,0.069,0.169,0.191,0.486,0.155,0.677,Republican,0.83,0.12,0.0462,53209,0.15,0.38,0.12,0.06
North Carolina,Currituck County,36.4031,-76.0059,0.72,0.26,0.46,0.157,0.021,0.131,0.167,0.524,0.178,0.6910000000000001,Republican,0.9,0.06,0.027,69964,0.09,0.29,0.18,0.06
Idaho,Latah County,46.8162,-116.7117,0.46,0.5,-0.04,0.002,0.012,0.066,0.328,0.592,0.014,0.9199999999999999,Democrat,0.92,0.01,0.0269,49158,0.04,0.2,0.26,0.2
Oklahoma,Muskogee County,35.6161,-95.3795,0.66,0.32,0.34,0.063,0.088,0.262,0.198,0.388,0.151,0.5860000000000001,Republican,0.58,0.11,0.0331,43078,0.15,0.34,0.14,0.06
Georgia,Floyd County,34.2632,-85.2143,0.7,0.29,0.41,0.186,0.036,0.234,0.148,0.395,0.222,0.543,Republican,0.78,0.14,0.0309,48336,0.18,0.34,0.12,0.09
Iowa,Clarke County,41.029,-93.7852,0.67,0.31,0.36,0.078,0.167,0.143,0.194,0.418,0.245,0.612,Republican,0.96,0,0.0197,54427,0.12,0.39,0.11,0.05
Oklahoma,Comanche County,34.6621,-98.4717,0.59,0.39,0.2,0.054,0.179,0.127,0.226,0.413,0.23299999999999998,0.639,Republican,0.63,0.17,0.0408,52161,0.1,0.33,0.13,0.09
Arkansas,Washington County,35.9791,-94.2156,0.5,0.46,0.04,0.034,0.028,0.101,0.186,0.651,0.062,0.837,Republican,0.77,0.04,0.0309,50451,0.15,0.26,0.2,0.13
Georgia,Paulding County,33.9205,-84.8673,0.64,0.35,0.29,0.097,0.068,0.108,0.233,0.494,0.165,0.727,Republican,0.75,0.19,0.0274,68370,0.11,0.33,0.15,0.08
Minnesota,Waseca County,44.0221,-93.5873,0.64,0.34,0.3,0.074,0.048,0.117,0.332,0.429,0.122,0.761,Republican,0.93,0.02,0.0255,56762,0.07,0.36,0.15,0.06
Nebraska,Furnas County,40.1764,-99.9123,0.83,0.15,0.68,0.101,0.135,0.129,0.319,0.315,0.23600000000000002,0.634,Republican,0.97,0,0.0109,48838,0.11,0.33,0.14,0.04
Texas,Marion County,32.798,-94.3572,0.71,0.28,0.44,0.076,0.067,0.118,0.211,0.528,0.14300000000000002,0.739,Republican,0.73,0.23,0.0476,37662,0.15,0.41,0.11,0.04
Arkansas,Lincoln County,33.9575,-91.7333,0.7,0.27,0.44,0.035,0.016,0.194,0.201,0.554,0.051000000000000004,0.7550000000000001,Republican,0.66,0.31,0.0066,46596,0.19,0.47,0.07,0.03
West Virginia,Wayne County,38.1459,-82.427,0.74,0.24,0.5,0.111,0.119,0.186,0.162,0.423,0.22999999999999998,0.585,Republican,0.98,0.01,0.0271,37988,0.2,0.41,0.1,0.05
Virginia,Lynchburg city,37.4003,-79.1909,0.47,0.5,-0.03,0.07,0.031,0.073,0.222,0.603,0.101,0.825,Democrat,0.65,0.29,0.0337,46409,0.11,0.25,0.21,0.14
South Carolina,Lexington County,33.9023,-81.2722,0.64,0.34,0.3,0.044,0.038,0.129,0.214,0.576,0.08199999999999999,0.7899999999999999,Republican,0.79,0.15,0.0332,61173,0.1,0.28,0.2,0.11
South Carolina,Aiken County,33.5443,-81.6347,0.61,0.38,0.23,0.1,0.086,0.116,0.193,0.505,0.186,0.698,Republican,0.71,0.25,0.0427,51399,0.12,0.33,0.17,0.09
Missouri,St. Louis County,38.6405,-90.4433,0.37,0.61,-0.24,0.024,0.028,0.069,0.182,0.697,0.052000000000000005,0.879,Democrat,0.68,0.24,0.0304,67420,0.07,0.21,0.25,0.19
Kentucky,Boone County,38.9699,-84.7278,0.67,0.31,0.36,0.08,0.087,0.081,0.232,0.52,0.16699999999999998,0.752,Republican,0.91,0.03,0.0265,78327,0.07,0.27,0.21,0.11
Pennsylvania,Lehigh County,40.6127,-75.5923,0.46,0.53,-0.08,0.014,0.004,0.053,0.103,0.826,0.018000000000000002,0.9289999999999999,Democrat,0.79,0.07,0.0375,63897,0.11,0.33,0.18,0.12
Kentucky,Graves County,36.7231,-88.6512,0.78,0.21,0.57,0.103,0.069,0.266,0.222,0.34,0.172,0.562,Republican,0.9,0.04,0.0345,44043,0.13,0.39,0.1,0.07
Florida,Putnam County,29.6087,-81.7443,0.7,0.29,0.41,0.068,0.05,0.114,0.186,0.581,0.11800000000000001,0.7669999999999999,Republican,0.8,0.16,0.0416,37670,0.18,0.41,0.08,0.04
Texas,Taylor County,32.3015,-99.8901,0.72,0.26,0.45,0.054,0.059,0.12,0.191,0.575,0.11299999999999999,0.766,Republican,0.77,0.08,0.0207,53143,0.11,0.31,0.16,0.09
Florida,Manatee County,27.4719,-82.3153,0.58,0.42,0.16,0.074,0.037,0.062,0.201,0.626,0.11099999999999999,0.827,Republican,0.85,0.09,0.0316,59009,0.1,0.3,0.18,0.12
South Dakota,Moody County,44.022,-96.6709,0.61,0.37,0.24,0.078,0.183,0.165,0.245,0.329,0.261,0.5740000000000001,Republican,0.8,0.01,0.0246,61538,0.1,0.34,0.17,0.05
Florida,Indian River County,27.6943,-80.6062,0.6,0.39,0.22,0.054,0.065,0.082,0.193,0.607,0.119,0.8,Republican,0.86,0.09,0.031,54740,0.11,0.3,0.18,0.11
Texas,Bandera County,29.7472,-99.2463,0.79,0.2,0.59,0.073,0.018,0.07,0.09,0.749,0.091,0.839,Republican,0.9,0.01,0.023,58661,0.11,0.32,0.16,0.07
Georgia,Troup County,33.0335,-85.0284,0.6,0.39,0.22,0.175,0.031,0.119,0.178,0.497,0.206,0.675,Republican,0.58,0.36,0.0376,45649,0.17,0.35,0.12,0.07
Missouri,Hickory County,37.9408,-93.3207,0.78,0.21,0.57,0.182,0.18,0.159,0.164,0.316,0.362,0.48,Republican,0.96,0,0.0271,34182,0.16,0.45,0.06,0.03
Tennessee,Overton County,36.345,-85.2881,0.79,0.2,0.59,0.12,0.131,0.228,0.128,0.393,0.251,0.521,Republican,0.98,0.01,0.0185,37197,0.19,0.47,0.08,0.05
Texas,Hemphill County,35.8375,-100.2706,0.86,0.12,0.74,0.189,0.125,0.139,0.138,0.409,0.314,0.5469999999999999,Republican,0.91,0.01,0.0337,70625,0.18,0.32,0.16,0.05
Texas,Delta County,33.3863,-95.6724,0.83,0.16,0.68,0.04,0.074,0.094,0.285,0.507,0.11399999999999999,0.792,Republican,0.88,0.09,0.0161,51038,0.12,0.32,0.16,0.1
Maine,Piscataquis County,45.8373,-69.2846,0.62,0.35,0.27,0.062,0.146,0.123,0.189,0.479,0.208,0.6679999999999999,Republican,0.96,0.01,0.0298,40890,0.1,0.41,0.13,0.06
Texas,Smith County,32.375,-95.2692,0.69,0.3,0.39,0.108,0.091,0.104,0.168,0.529,0.199,0.6970000000000001,Republican,0.77,0.17,0.0328,56810,0.14,0.23,0.18,0.09
Texas,Blanco County,30.2664,-98.3999,0.73,0.26,0.47,0.005,0.019,0.115,0.074,0.788,0.024,0.862,Republican,0.89,0,0.0305,66390,0.1,0.3,0.17,0.09
North Dakota,Nelson County,47.9217,-98.192,0.64,0.33,0.31,0.133,0.183,0.193,0.218,0.274,0.316,0.492,Republican,0.97,0,0.0025,52039,0.08,0.29,0.19,0.06
Virginia,Stafford County,38.4207,-77.458,0.47,0.51,-0.03,0.045,0.035,0.097,0.095,0.728,0.08,0.823,Democrat,0.67,0.18,0.0247,111108,0.07,0.23,0.24,0.16
Texas,Ward County,31.5095,-103.1025,0.8,0.19,0.61,0.08,0.052,0.094,0.197,0.577,0.132,0.774,Republican,0.86,0.04,0.0358,62986,0.21,0.36,0.09,0.03
South Dakota,Bennett County,43.195,-101.664,0.59,0.39,0.19,0.147,0.052,0.117,0.327,0.356,0.19899999999999998,0.683,Republican,0.34,0,0.0744,47500,0.2,0.33,0.13,0.02
South Carolina,Marion County,34.0801,-79.3625,0.39,0.6,-0.21,0.28,0.036,0.182,0.127,0.376,0.316,0.503,Democrat,0.4,0.57,0.0422,32063,0.21,0.42,0.09,0.05
West Virginia,Randolph County,38.7748,-79.8758,0.71,0.28,0.44,0.098,0.05,0.14,0.265,0.447,0.14800000000000002,0.712,Republican,0.96,0.02,0.0299,43320,0.15,0.48,0.1,0.07
Oregon,Clatsop County,45.9951,-123.6558,0.43,0.54,-0.11,0.052,0.027,0.051,0.073,0.797,0.079,0.87,Democrat,0.92,0.01,0.0306,54886,0.08,0.27,0.15,0.09
Texas,Panola County,32.1624,-94.3056,0.81,0.18,0.63,0.027,0.033,0.211,0.281,0.448,0.06,0.7290000000000001,Republican,0.81,0.17,0.027,52982,0.17,0.31,0.12,0.05
Iowa,Cass County,41.3315,-94.9278,0.68,0.3,0.38,0.341,0.07,0.124,0.238,0.227,0.41100000000000003,0.46499999999999997,Republican,0.97,0,0.0149,50187,0.12,0.38,0.15,0.05
Alabama,Winston County,34.1492,-87.3737,0.9,0.09,0.82,0.13,0.046,0.328,0.183,0.312,0.176,0.495,Republican,0.96,0.01,0.0368,35788,0.21,0.38,0.07,0.06
Texas,Brazoria County,29.1897,-95.4519,0.58,0.4,0.18,0.021,0.042,0.075,0.17,0.691,0.063,0.861,Republican,0.72,0.14,0.0283,81447,0.12,0.26,0.2,0.1
Alabama,Dale County,31.4318,-85.611,0.72,0.26,0.46,0.089,0.113,0.118,0.22,0.46,0.202,0.68,Republican,0.72,0.2,0.0398,47214,0.14,0.32,0.12,0.06
Vermont,Washington County,44.2734,-72.6149,0.25,0.71,-0.46,0.051,0.19,0.104,0.05,0.604,0.241,0.654,Democrat,0.96,0.01,0.0209,62791,0.06,0.27,0.23,0.18
Wisconsin,Polk County,45.4614,-92.4414,0.63,0.36,0.27,0.081,0.113,0.154,0.253,0.399,0.194,0.652,Republican,0.96,0,0.0227,59994,0.06,0.37,0.15,0.06
Michigan,Alcona County,44.6854,-83.5937,0.69,0.3,0.38,0.065,0.046,0.133,0.18,0.576,0.111,0.756,Republican,0.97,0,0.03,40484,0.11,0.39,0.11,0.06
Georgia,Clayton County,33.5419,-84.3576,0.14,0.85,-0.71,0.038,0.054,0.125,0.159,0.624,0.092,0.783,Democrat,0.16,0.69,0.0501,47864,0.15,0.34,0.13,0.07
New Mexico,De Baca County,34.3425,-104.412,0.73,0.26,0.47,0.036,0.069,0.085,0.098,0.712,0.10500000000000001,0.8099999999999999,Republican,0.67,0.02,0.0499,31625,0.16,0.36,0.07,0.06
Oklahoma,Greer County,34.9357,-99.5608,0.81,0.17,0.65,0.073,0.19,0.148,0.225,0.365,0.263,0.59,Republican,0.79,0.06,0.0285,41488,0.16,0.36,0.1,0.02
Texas,Cochran County,33.6042,-102.8285,0.81,0.18,0.63,0.029,0.078,0.068,0.229,0.595,0.107,0.824,Republican,0.89,0.05,0.0486,40962,0.32,0.31,0.06,0.02
Tennessee,McMinn County,35.4248,-84.6175,0.8,0.19,0.61,0.077,0.087,0.155,0.298,0.384,0.16399999999999998,0.6819999999999999,Republican,0.92,0.04,0.0316,43285,0.16,0.4,0.11,0.05
Iowa,Clayton County,42.8447,-91.3414,0.64,0.35,0.29,0.123,0.084,0.137,0.284,0.371,0.20700000000000002,0.655,Republican,0.97,0.01,0.0158,53152,0.1,0.43,0.14,0.04
Minnesota,Nicollet County,44.3499,-94.2474,0.47,0.5,-0.03,0.063,0.085,0.164,0.296,0.392,0.14800000000000002,0.688,Democrat,0.92,0.03,0.0225,67399,0.06,0.25,0.22,0.12
Indiana,Pulaski County,41.0419,-86.6988,0.73,0.25,0.48,0.135,0.219,0.171,0.253,0.223,0.354,0.476,Republican,0.95,0,0.037,49580,0.12,0.46,0.09,0.03
North Carolina,Clay County,35.0572,-83.7502,0.74,0.25,0.5,0.099,0.091,0.095,0.169,0.546,0.19,0.7150000000000001,Republican,0.97,0.02,0.015,42222,0.12,0.33,0.14,0.1
Florida,Pasco County,28.3091,-82.3932,0.59,0.39,0.2,0.027,0.029,0.055,0.179,0.709,0.056,0.8879999999999999,Republican,0.87,0.06,0.0308,52828,0.11,0.33,0.16,0.08
Texas,Haskell County,33.1782,-99.7303,0.83,0.16,0.67,0.087,0.128,0.137,0.209,0.439,0.215,0.648,Republican,0.89,0.04,0.0639,40313,0.3,0.35,0.09,0.03
Iowa,Tama County,42.0798,-92.5326,0.59,0.4,0.19,0.066,0.053,0.209,0.181,0.491,0.119,0.6719999999999999,Republican,0.88,0.01,0.0221,56037,0.09,0.4,0.12,0.04
Pennsylvania,Chester County,39.9731,-75.7484,0.41,0.58,-0.17,0.006,0.022,0.038,0.113,0.82,0.027999999999999997,0.9329999999999999,Democrat,0.85,0.06,0.0272,100214,0.06,0.21,0.31,0.22
Michigan,Iosco County,44.3558,-83.6359,0.64,0.35,0.29,0.1,0.084,0.099,0.206,0.511,0.184,0.717,Republican,0.96,0.01,0.0329,43678,0.11,0.38,0.1,0.06
Iowa,Washington County,41.3356,-91.7179,0.59,0.39,0.2,0.035,0.102,0.123,0.151,0.589,0.137,0.74,Republican,0.95,0.01,0.0211,62556,0.09,0.39,0.15,0.07
Minnesota,Martin County,43.6743,-94.5512,0.68,0.3,0.38,0.18,0.115,0.134,0.205,0.366,0.295,0.571,Republican,0.96,0,0.0258,52798,0.07,0.38,0.15,0.06
Virginia,Fauquier County,38.7386,-77.8092,0.58,0.4,0.17,0.04,0.013,0.042,0.133,0.772,0.053,0.905,Republican,0.87,0.07,0.0213,100783,0.08,0.27,0.23,0.13
Illinois,Menard County,40.0274,-89.8022,0.69,0.29,0.39,0.102,0.047,0.138,0.172,0.54,0.149,0.712,Republican,0.97,0,0.0322,74684,0.06,0.36,0.16,0.08
Maryland,Baltimore County,39.4627,-76.6393,0.35,0.62,-0.27,0.013,0.024,0.043,0.142,0.777,0.037,0.919,Democrat,0.61,0.29,0.0318,76866,0.09,0.26,0.23,0.17
Colorado,Arapahoe County,39.6498,-104.3392,0.36,0.61,-0.25,0.013,0.026,0.065,0.193,0.703,0.039,0.8959999999999999,Democrat,0.72,0.11,0.0291,77469,0.07,0.21,0.27,0.16
New Mexico,Taos County,36.5783,-105.631,0.22,0.76,-0.55,0.006,0.041,0.055,0.113,0.785,0.047,0.898,Democrat,0.84,0,0.0479,38329,0.1,0.28,0.17,0.12
North Carolina,Stanly County,35.312,-80.251,0.75,0.24,0.51,0.029,0.083,0.097,0.217,0.574,0.112,0.7909999999999999,Republican,0.84,0.11,0.0351,52623,0.15,0.33,0.12,0.05
Texas,Travis County,30.3347,-97.782,0.26,0.71,-0.45,0.015,0.008,0.024,0.158,0.795,0.023,0.9530000000000001,Democrat,0.72,0.08,0.0277,75887,0.11,0.16,0.32,0.18
Wyoming,Washakie County,43.905,-107.6827,0.81,0.16,0.65,0.204,0.155,0.069,0.285,0.287,0.359,0.572,Republican,0.9,0,0.0241,54158,0.1,0.3,0.15,0.08
Wisconsin,Vernon County,43.5939,-90.8344,0.52,0.47,0.05,0.157,0.052,0.093,0.244,0.454,0.209,0.698,Republican,0.97,0,0.0147,52459,0.11,0.38,0.15,0.08
Virginia,Madison County,38.4137,-78.2792,0.65,0.33,0.32,0.017,0.097,0.064,0.154,0.668,0.114,0.8220000000000001,Republican,0.85,0.08,0.031,57895,0.14,0.36,0.15,0.08
Nebraska,Nemaha County,40.3877,-95.8498,0.71,0.27,0.44,0.09,0.148,0.137,0.293,0.333,0.238,0.626,Republican,0.96,0.02,0.0253,51828,0.08,0.3,0.2,0.08
Ohio,Columbiana County,40.7684,-80.7772,0.72,0.27,0.45,0.098,0.08,0.115,0.156,0.551,0.178,0.7070000000000001,Republican,0.95,0.02,0.0377,48345,0.11,0.45,0.1,0.05
Colorado,Mineral County,37.6689,-106.9241,0.56,0.42,0.15,0.049,0.072,0.138,0.264,0.478,0.121,0.742,Republican,0.87,0.01,0.0151,62188,0.03,0.16,0.3,0.16
Virginia,Radford city,37.1229,-80.5587,0.44,0.53,-0.09,0.075,0.045,0.11,0.177,0.593,0.12,0.77,Democrat,0.85,0.1,0.0244,36297,0.09,0.24,0.18,0.2
Alabama,Lawrence County,34.5217,-87.311,0.77,0.22,0.55,0.162,0.08,0.088,0.251,0.419,0.242,0.6699999999999999,Republican,0.78,0.11,0.0259,44886,0.21,0.41,0.08,0.04
Georgia,Calhoun County,31.5292,-84.6245,0.42,0.57,-0.15,0.013,0.035,0.043,0.172,0.737,0.048,0.909,Democrat,0.34,0.61,0.0472,34167,0.27,0.37,0.06,0.04
Texas,Wilson County,29.174,-98.0866,0.74,0.25,0.48,0,0.003,0.072,0.208,0.716,0.003,0.9239999999999999,Republican,0.93,0.01,0.0308,76692,0.12,0.36,0.15,0.07
Connecticut,Windham County,41.83,-71.9874,0.51,0.47,0.04,0.022,0.041,0.082,0.137,0.718,0.063,0.855,Republican,0.89,0.02,0.0363,66550,0.12,0.33,0.15,0.1
West Virginia,Wyoming County,37.6096,-81.5492,0.86,0.13,0.72,0.073,0.098,0.176,0.245,0.408,0.17099999999999999,0.653,Republican,0.97,0.01,0.0536,42332,0.2,0.49,0.05,0.04
Indiana,Franklin County,39.4149,-85.0602,0.81,0.18,0.63,0.07,0.082,0.104,0.199,0.545,0.15200000000000002,0.744,Republican,0.97,0,0.0163,62462,0.13,0.43,0.14,0.07
North Carolina,Watauga County,36.2311,-81.6964,0.45,0.53,-0.08,0.062,0.01,0.072,0.363,0.493,0.072,0.856,Democrat,0.94,0.02,0.0425,47526,0.09,0.21,0.24,0.18
Colorado,Washington County,39.971,-103.2012,0.86,0.12,0.74,0.077,0.208,0.101,0.303,0.31,0.285,0.613,Republican,0.95,0.01,0.0146,50094,0.08,0.35,0.1,0.05
Michigan,Emmet County,45.521,-84.8908,0.55,0.44,0.11,0.025,0.062,0.075,0.219,0.618,0.087,0.837,Republican,0.92,0.01,0.031,55829,0.06,0.25,0.2,0.13
Kansas,Haskell County,37.5622,-100.8712,0.8,0.19,0.61,0.153,0.107,0.137,0.239,0.364,0.26,0.603,Republican,0.86,0,0.0209,55064,0.28,0.19,0.13,0.04
Texas,Sutton County,30.4984,-100.5382,0.78,0.21,0.58,0.009,0.042,0.08,0.209,0.659,0.051000000000000004,0.868,Republican,0.63,0,0.0487,54306,0.26,0.33,0.11,0.06
Texas,Jasper County,30.744,-94.0251,0.8,0.19,0.61,0.04,0.055,0.068,0.125,0.712,0.095,0.837,Republican,0.77,0.17,0.043,44370,0.15,0.45,0.08,0.05
Kansas,Sherman County,39.3514,-101.72,0.83,0.14,0.69,0.1,0.27,0.159,0.24,0.231,0.37,0.471,Republican,0.91,0.02,0.0229,54754,0.08,0.3,0.17,0.05
Ohio,Fulton County,41.6018,-84.1301,0.69,0.29,0.4,0.029,0.046,0.318,0.272,0.335,0.075,0.607,Republican,0.93,0,0.0266,63092,0.09,0.42,0.12,0.05
Tennessee,Lawrence County,35.2173,-87.3956,0.82,0.17,0.65,0.074,0.129,0.156,0.192,0.45,0.203,0.642,Republican,0.95,0.02,0.0437,43614,0.17,0.44,0.09,0.06
Georgia,Muscogee County,32.51,-84.8771,0.37,0.61,-0.24,0.063,0.073,0.083,0.225,0.555,0.136,0.78,Democrat,0.43,0.46,0.0514,46408,0.12,0.27,0.15,0.1
Arkansas,Benton County,36.3387,-94.2561,0.62,0.35,0.26,0.081,0.034,0.083,0.16,0.643,0.115,0.803,Republican,0.88,0.02,0.0159,66362,0.11,0.29,0.22,0.11
South Carolina,Anderson County,34.5193,-82.6378,0.7,0.28,0.42,0.069,0.065,0.138,0.26,0.468,0.134,0.728,Republican,0.8,0.16,0.0307,50865,0.15,0.31,0.14,0.08
South Dakota,Gregory County,43.1924,-99.1856,0.78,0.2,0.58,0.113,0.118,0.206,0.264,0.299,0.23099999999999998,0.563,Republican,0.88,0,0.0055,43438,0.11,0.36,0.14,0.06
North Carolina,Bertie County,36.0662,-76.9787,0.39,0.61,-0.22,0.1,0.04,0.064,0.214,0.582,0.14,0.7959999999999999,Democrat,0.35,0.62,0.0549,35527,0.22,0.38,0.08,0.05
Kentucky,Carter County,38.3182,-83.0495,0.76,0.23,0.53,0.069,0.102,0.122,0.324,0.383,0.17099999999999999,0.7070000000000001,Republican,0.98,0.01,0.0245,34736,0.21,0.4,0.07,0.05
Washington,Wahkiakum County,46.2918,-123.4244,0.58,0.39,0.19,0.045,0.057,0.079,0.161,0.658,0.10200000000000001,0.8190000000000001,Republican,0.91,0.01,0.0294,53227,0.08,0.3,0.11,0.08
Tennessee,Cannon County,35.8087,-86.0618,0.79,0.19,0.6,0.209,0.089,0.238,0.182,0.282,0.298,0.46399999999999997,Republican,0.96,0.02,0.0221,55330,0.15,0.46,0.1,0.06
New Mexico,Torrance County,34.6405,-105.8508,0.66,0.32,0.33,0.097,0.005,0.035,0.167,0.696,0.10200000000000001,0.863,Republican,0.91,0.01,0.0326,36120,0.15,0.38,0.09,0.06
Virginia,Danville city,36.5831,-79.4087,0.38,0.6,-0.22,0.087,0.043,0.209,0.127,0.534,0.13,0.661,Democrat,0.46,0.49,0.0465,37203,0.18,0.32,0.11,0.06
Texas,Dawson County,32.7426,-101.9476,0.78,0.21,0.57,0.03,0.023,0.074,0.115,0.759,0.053,0.874,Republican,0.75,0.08,0.0276,43239,0.3,0.32,0.12,0.03
Illinois,Mason County,40.2396,-89.9168,0.69,0.29,0.39,0.238,0.031,0.292,0.126,0.313,0.269,0.439,Republican,0.97,0.01,0.0402,48417,0.11,0.43,0.11,0.05
Missouri,Benton County,38.2948,-93.2879,0.77,0.21,0.57,0.188,0.122,0.168,0.277,0.245,0.31,0.522,Republican,0.96,0,0.036,40249,0.16,0.4,0.07,0.06
Michigan,Macomb County,42.6955,-82.9323,0.53,0.45,0.08,0.034,0.043,0.09,0.145,0.688,0.077,0.833,Republican,0.81,0.12,0.0343,62855,0.1,0.3,0.16,0.09
Arkansas,Grant County,34.29,-92.4236,0.83,0.15,0.67,0.082,0.043,0.127,0.258,0.489,0.125,0.747,Republican,0.95,0.03,0.0217,55388,0.09,0.44,0.12,0.06
Michigan,Baraga County,46.6626,-88.3652,0.62,0.37,0.26,0.012,0.063,0.109,0.257,0.558,0.075,0.8150000000000001,Republican,0.73,0.09,0.0269,46065,0.11,0.41,0.1,0.06
Tennessee,Hamilton County,35.1808,-85.1648,0.54,0.44,0.1,0.116,0.116,0.129,0.229,0.411,0.232,0.64,Republican,0.75,0.19,0.0304,55070,0.11,0.27,0.21,0.11
Iowa,Grundy County,42.4019,-92.7914,0.68,0.3,0.37,0.038,0.042,0.203,0.238,0.48,0.08,0.718,Republican,0.98,0.01,0.0143,68038,0.05,0.32,0.22,0.06
Montana,Valley County,48.3653,-106.6674,0.73,0.24,0.49,0.172,0.235,0.187,0.291,0.115,0.407,0.40599999999999997,Republican,0.86,0,0.0325,53162,0.06,0.34,0.16,0.05
Texas,Karnes County,28.9057,-97.8594,0.76,0.24,0.52,0,0.001,0.104,0.145,0.75,0.001,0.895,Republican,0.76,0.07,0.0224,56127,0.24,0.37,0.12,0.04
West Virginia,Cabell County,38.4203,-82.2417,0.58,0.4,0.18,0.092,0.09,0.154,0.186,0.476,0.182,0.6619999999999999,Republican,0.91,0.05,0.0283,40028,0.12,0.33,0.15,0.11
Connecticut,New Haven County,41.4105,-72.9321,0.41,0.58,-0.17,0.023,0.014,0.053,0.115,0.795,0.037,0.91,Democrat,0.73,0.14,0.042,69905,0.1,0.31,0.19,0.16
Wisconsin,Waushara County,44.1131,-89.2429,0.66,0.32,0.34,0.109,0.147,0.202,0.186,0.356,0.256,0.542,Republican,0.93,0.01,0.0237,52810,0.13,0.42,0.1,0.06
Texas,Tom Green County,31.4045,-100.4621,0.71,0.27,0.44,0.007,0.038,0.071,0.271,0.613,0.045,0.884,Republican,0.87,0.04,0.0241,53903,0.14,0.3,0.16,0.08
Missouri,Howell County,36.774,-91.8865,0.81,0.17,0.64,0.301,0.142,0.208,0.107,0.242,0.44299999999999995,0.349,Republican,0.96,0,0.0223,38357,0.13,0.39,0.1,0.08
Iowa,Lee County,40.642,-91.4793,0.58,0.39,0.19,0.17,0.146,0.131,0.161,0.392,0.316,0.553,Republican,0.94,0.03,0.0421,49564,0.07,0.41,0.12,0.04
Indiana,Washington County,38.6,-86.1053,0.75,0.23,0.52,0.097,0.074,0.062,0.356,0.411,0.17099999999999999,0.7669999999999999,Republican,0.98,0,0.0324,47983,0.15,0.43,0.09,0.05
Michigan,Van Buren County,42.2513,-86.0189,0.55,0.43,0.12,0.025,0.068,0.137,0.183,0.587,0.093,0.77,Republican,0.86,0.03,0.035,54485,0.13,0.31,0.14,0.07
Texas,Jim Wells County,27.7314,-98.0899,0.55,0.45,0.1,0.057,0.007,0.137,0.051,0.748,0.064,0.799,Republican,0.95,0.01,0.0287,41505,0.25,0.37,0.09,0.03
Ohio,Meigs County,39.0822,-82.0229,0.76,0.23,0.53,0.072,0.137,0.182,0.177,0.432,0.20900000000000002,0.609,Republican,0.97,0.01,0.0404,44899,0.16,0.42,0.08,0.05
North Carolina,Davie County,35.9291,-80.5445,0.72,0.27,0.45,0.074,0.067,0.037,0.14,0.681,0.14100000000000001,0.8210000000000001,Republican,0.89,0.05,0.0228,60434,0.12,0.32,0.15,0.09
Virginia,Westmoreland County,38.1119,-76.8041,0.54,0.45,0.08,0.079,0.036,0.127,0.127,0.631,0.11499999999999999,0.758,Republican,0.68,0.26,0.0345,53853,0.15,0.34,0.12,0.07
South Carolina,Barnwell County,33.266,-81.435,0.53,0.46,0.07,0.169,0.067,0.035,0.281,0.447,0.23600000000000002,0.728,Republican,0.51,0.46,0.0291,35803,0.2,0.35,0.08,0.05
Ohio,Geauga County,41.4996,-81.1786,0.61,0.38,0.23,0.03,0.057,0.064,0.218,0.631,0.087,0.849,Republican,0.97,0.01,0.0166,82303,0.1,0.25,0.24,0.14
Massachusetts,Plymouth County,41.9512,-70.8114,0.4,0.58,-0.17,0.014,0.017,0.045,0.112,0.812,0.031,0.924,Democrat,0.83,0.1,0.0337,89489,0.07,0.28,0.24,0.14
West Virginia,Wood County,39.2112,-81.515,0.7,0.28,0.42,0.094,0.099,0.149,0.277,0.381,0.193,0.658,Republican,0.96,0.01,0.0251,47321,0.1,0.34,0.14,0.08
Minnesota,Sherburne County,45.4439,-93.7746,0.65,0.32,0.33,0.064,0.175,0.175,0.239,0.346,0.239,0.585,Republican,0.92,0.02,0.021,89250,0.05,0.29,0.19,0.08
Virginia,Buchanan County,37.2666,-82.036,0.84,0.16,0.68,0.037,0.099,0.219,0.181,0.463,0.136,0.644,Republican,0.95,0.03,0.0271,31956,0.3,0.35,0.07,0.05
Minnesota,Cottonwood County,44.0071,-95.1812,0.68,0.3,0.38,0.216,0.045,0.262,0.215,0.263,0.261,0.478,Republican,0.89,0.01,0.0247,52087,0.11,0.36,0.15,0.05
North Dakota,McIntosh County,46.1118,-99.4412,0.79,0.18,0.61,0.169,0.128,0.136,0.275,0.291,0.29700000000000004,0.5660000000000001,Republican,0.96,0.01,0.0018,52587,0.18,0.33,0.1,0.06
Kentucky,Lewis County,38.5316,-83.3781,0.85,0.14,0.71,0.057,0.081,0.21,0.296,0.357,0.138,0.653,Republican,0.98,0.01,0.0219,31147,0.24,0.43,0.05,0.04
Kansas,Geary County,39.0024,-96.7525,0.56,0.41,0.15,0.05,0.068,0.113,0.27,0.499,0.11800000000000001,0.769,Republican,0.68,0.19,0.0234,53133,0.06,0.25,0.15,0.08
Georgia,Liberty County,31.8281,-81.4947,0.37,0.61,-0.24,0.007,0.099,0.066,0.215,0.614,0.10600000000000001,0.829,Democrat,0.46,0.41,0.0533,48007,0.09,0.32,0.12,0.06
Kentucky,Jessamine County,37.8721,-84.5809,0.65,0.33,0.32,0.022,0.036,0.104,0.21,0.628,0.057999999999999996,0.838,Republican,0.91,0.05,0.0377,58245,0.13,0.31,0.18,0.12
Arkansas,Bradley County,33.4664,-92.1624,0.64,0.33,0.31,0.094,0.102,0.175,0.184,0.445,0.196,0.629,Republican,0.66,0.29,0.0392,43184,0.19,0.41,0.1,0.04
Alabama,Tallapoosa County,32.8624,-85.7975,0.71,0.28,0.43,0.067,0.095,0.136,0.296,0.406,0.162,0.702,Republican,0.7,0.27,0.0501,45828,0.19,0.33,0.12,0.07
Georgia,Camden County,30.9306,-81.67,0.64,0.34,0.31,0.136,0.125,0.17,0.113,0.456,0.261,0.5690000000000001,Republican,0.73,0.19,0.0388,56951,0.09,0.32,0.15,0.09
West Virginia,Boone County,38.023,-81.7112,0.76,0.23,0.53,0.097,0.138,0.093,0.197,0.475,0.23500000000000001,0.6719999999999999,Republican,0.98,0.01,0.0426,40739,0.2,0.5,0.06,0.04
West Virginia,Roane County,38.714,-81.3483,0.73,0.25,0.48,0.082,0.024,0.191,0.21,0.493,0.10600000000000001,0.703,Republican,0.98,0,0.0375,37373,0.21,0.44,0.08,0.05
Missouri,Wright County,37.2702,-92.4687,0.85,0.13,0.72,0.419,0.139,0.187,0.1,0.155,0.558,0.255,Republican,0.97,0.01,0.038,34776,0.2,0.45,0.07,0.03
Iowa,Dubuque County,42.4688,-90.8825,0.5,0.48,0.03,0.037,0.155,0.189,0.189,0.43,0.192,0.619,Republican,0.93,0.04,0.0263,63031,0.07,0.33,0.2,0.11
North Carolina,Tyrrell County,35.8172,-76.209,0.57,0.42,0.16,0.054,0.016,0.103,0.301,0.527,0.07,0.8280000000000001,Republican,0.55,0.37,0.0236,35300,0.26,0.36,0.08,0.03
Minnesota,Wright County,45.174,-93.9631,0.63,0.34,0.29,0.083,0.109,0.162,0.259,0.387,0.192,0.646,Republican,0.94,0.01,0.0198,84974,0.05,0.29,0.21,0.09
South Carolina,Sumter County,33.9162,-80.3823,0.43,0.56,-0.13,0.128,0.054,0.154,0.182,0.483,0.182,0.665,Democrat,0.47,0.47,0.053,45661,0.15,0.31,0.12,0.07
South Carolina,Fairfield County,34.3951,-81.1212,0.38,0.61,-0.23,0.046,0.032,0.046,0.31,0.566,0.078,0.8759999999999999,Democrat,0.39,0.59,0.0323,38213,0.14,0.41,0.12,0.05
California,Merced County,37.1919,-120.7177,0.44,0.54,-0.11,0.026,0.036,0.089,0.146,0.703,0.062,0.849,Democrat,0.55,0.03,0.0708,53672,0.31,0.25,0.09,0.05
Texas,Webb County,27.7611,-99.3315,0.38,0.61,-0.23,0.033,0,0.064,0.136,0.767,0.033,0.903,Democrat,0.96,0,0.0292,46475,0.32,0.25,0.14,0.05
North Dakota,LaMoure County,46.4569,-98.5355,0.74,0.24,0.5,0.115,0.07,0.193,0.307,0.315,0.185,0.622,Republican,0.97,0.01,0.0036,60806,0.14,0.29,0.18,0.06
North Dakota,Stark County,46.8107,-102.6551,0.8,0.17,0.64,0.207,0.205,0.129,0.24,0.219,0.412,0.45899999999999996,Republican,0.91,0.02,0.0176,72045,0.1,0.32,0.17,0.06
Nebraska,Clay County,40.5244,-98.0513,0.8,0.18,0.62,0.064,0.132,0.124,0.28,0.4,0.196,0.68,Republican,0.97,0,0.0226,57173,0.08,0.34,0.14,0.06
Kentucky,Rockcastle County,37.3651,-84.316,0.84,0.15,0.7,0.215,0.079,0.075,0.157,0.474,0.294,0.631,Republican,0.98,0,0.0423,35720,0.22,0.43,0.07,0.05
Mississippi,Oktibbeha County,33.425,-88.8793,0.45,0.52,-0.07,0.015,0.07,0.081,0.242,0.591,0.085,0.833,Democrat,0.57,0.37,0.0455,40453,0.09,0.22,0.2,0.22
West Virginia,Mingo County,37.7264,-82.1347,0.85,0.14,0.71,0.084,0.093,0.093,0.172,0.558,0.177,0.73,Republican,0.96,0.02,0.0604,32764,0.24,0.43,0.06,0.04
Wyoming,Sheridan County,44.79,-106.8793,0.72,0.25,0.47,0.17,0.251,0.099,0.203,0.278,0.42100000000000004,0.48100000000000004,Republican,0.95,0,0.0195,60807,0.05,0.26,0.17,0.14
Delaware,Sussex County,38.6606,-75.39,0.55,0.44,0.11,0.005,0.001,0.035,0.103,0.856,0.006,0.959,Republican,0.82,0.12,0.0241,63162,0.12,0.31,0.16,0.12
Kansas,Allen County,37.8857,-95.3014,0.71,0.27,0.44,0.153,0.212,0.126,0.167,0.341,0.365,0.508,Republican,0.93,0.01,0.0278,45333,0.08,0.33,0.13,0.08
Tennessee,Obion County,36.3582,-89.1488,0.8,0.19,0.61,0.117,0.125,0.187,0.246,0.325,0.242,0.571,Republican,0.85,0.1,0.0303,39615,0.16,0.45,0.1,0.05
Georgia,Wheeler County,32.1171,-82.7246,0.69,0.3,0.39,0.135,0.078,0.162,0.23,0.395,0.21300000000000002,0.625,Republican,0.56,0.43,0.0563,30192,0.19,0.5,0.12,0.01
Tennessee,Cocke County,35.9254,-83.1212,0.82,0.17,0.65,0.197,0.118,0.082,0.171,0.431,0.315,0.602,Republican,0.95,0.02,0.0448,36716,0.2,0.47,0.07,0.04
North Carolina,Richmond County,35.0059,-79.7478,0.57,0.42,0.15,0.05,0.039,0.145,0.153,0.612,0.089,0.765,Republican,0.62,0.32,0.047,36148,0.19,0.32,0.1,0.05
Georgia,Early County,31.3228,-84.9037,0.52,0.47,0.05,0.045,0.062,0.156,0.253,0.485,0.107,0.738,Republican,0.45,0.52,0.0443,30640,0.2,0.37,0.11,0.04
South Dakota,Dewey County,45.1566,-100.8718,0.4,0.58,-0.17,0.069,0.057,0.141,0.237,0.497,0.126,0.734,Democrat,0.2,0,0.1433,47475,0.15,0.36,0.12,0.05
